City,lat,lng,country,iso2,admin_name,capital,population,population_proper
Zürich,47.3786,8.54,Switzerland,CH,Zürich,admin,434008.0,434008.0
Geneva,46.2,6.15,Switzerland,CH,Genève,admin,201818.0,201818.0
Basel,47.5606,7.5906,Switzerland,CH,Basel-Stadt,admin,177595.0,177595.0
Lausanne,46.5333,6.6333,Switzerland,CH,Vaud,admin,138905.0,138905.0
Bern,46.948,7.4474,Switzerland,CH,Bern,primary,133798.0,133798.0
Winterthur,47.4992,8.7267,Switzerland,CH,Zürich,minor,109775.0,109775.0
Lucerne,47.0523,8.3059,Switzerland,CH,Luzern,admin,81691.0,81691.0
Sankt Gallen,47.4233,9.3772,Switzerland,CH,Sankt Gallen,admin,75833.0,75833.0
Lugano,46.0103,8.9625,Switzerland,CH,Ticino,,63185.0,63185.0
Biel/Bienne,47.1372,7.2472,Switzerland,CH,Bern,,54456.0,54456.0
Thun,46.759,7.63,Switzerland,CH,Bern,minor,43743.0,43743.0
Bellinzona,46.1956,9.0238,Switzerland,CH,Ticino,,43220.0,43220.0
Köniz,46.925,7.4153,Switzerland,CH,Bern,,41507.0,41507.0
La Chaux-de-Fonds,47.0996,6.8296,Switzerland,CH,Neuchâtel,minor,38965.0,38965.0
Fribourg,46.8,7.15,Switzerland,CH,Fribourg,admin,38365.0,38365.0
Schaffhausen,47.6965,8.6339,Switzerland,CH,Schaffhausen,admin,36587.0,36587.0
Vernier,46.2,6.1,Switzerland,CH,Genève,,35132.0,35132.0
Chur,46.8521,9.5297,Switzerland,CH,Graubünden,admin,35038.0,35038.0
Sion,46.2304,7.3661,Switzerland,CH,Valais,,34708.0,34708.0
Uster,47.3492,8.7192,Switzerland,CH,Zürich,minor,34442.0,34442.0
Neuchâtel,46.9903,6.9306,Switzerland,CH,Neuchâtel,admin,33475.0,33475.0
Landecy,46.1897,6.1158,Switzerland,CH,Genève,,31942.0,31942.0
Zug,47.1681,8.5169,Switzerland,CH,Zug,admin,30542.0,30542.0
Yverdon-les-Bains,46.7785,6.6408,Switzerland,CH,Vaud,minor,30157.0,30157.0
Emmen,47.0772,8.3,Switzerland,CH,Luzern,,29292.0,29292.0
Dübendorf,47.3981,8.6194,Switzerland,CH,Zürich,,28002.0,28002.0
Kriens,47.0344,8.28,Switzerland,CH,Luzern,,26997.0,26997.0
Rapperswil-Jona,47.2286,8.8317,Switzerland,CH,Sankt Gallen,minor,26989.0,26989.0
Dietikon,47.4056,8.4039,Switzerland,CH,Zürich,,26936.0,26936.0
Montreux,46.4333,6.9167,Switzerland,CH,Vaud,,25984.0,25984.0
Wetzikon,47.3208,8.7931,Switzerland,CH,Zürich,,24452.0,24452.0
Baar,47.1956,8.5264,Switzerland,CH,Zug,,24322.0,24322.0
Meyrin,46.2322,6.0791,Switzerland,CH,Genève,,24144.0,24144.0
Wil,47.4664,9.0497,Switzerland,CH,Sankt Gallen,minor,23768.0,23768.0
Bulle,46.6167,7.05,Switzerland,CH,Fribourg,,22709.0,22709.0
Horgen,47.2608,8.5975,Switzerland,CH,Zürich,,22662.0,22662.0
Carouge,46.1817,6.1404,Switzerland,CH,Genève,,22336.0,22336.0
Frauenfeld,47.558,8.8964,Switzerland,CH,Thurgau,,21979.0,21979.0
Kreuzlingen,47.6458,9.1783,Switzerland,CH,Thurgau,minor,21801.0,21801.0
Wädenswil,47.2303,8.6722,Switzerland,CH,Zürich,,21716.0,21716.0
Riehen,47.5794,7.6512,Switzerland,CH,Basel-Stadt,,21448.0,21448.0
Aarau,47.3923,8.0446,Switzerland,CH,Aargau,admin,21268.0,21268.0
Allschwil,47.5508,7.5358,Switzerland,CH,Basel-Landschaft,,21150.0,21150.0
Renens,46.5353,6.5897,Switzerland,CH,Vaud,minor,20927.0,20927.0
Wettingen,47.4659,8.3267,Switzerland,CH,Aargau,,20721.0,20721.0
Nyon,46.382,6.2389,Switzerland,CH,Vaud,,20272.0,20272.0
Bülach,47.5189,8.5422,Switzerland,CH,Zürich,,20046.0,20046.0
Vevey,46.4667,6.85,Switzerland,CH,Vaud,,19891.0,19891.0
Opfikon,47.4331,8.5719,Switzerland,CH,Zürich,,19864.0,19864.0
Kloten,47.4481,8.5828,Switzerland,CH,Zürich,,19362.0,19362.0
Reinach,47.4936,7.5908,Switzerland,CH,Basel-Landschaft,,19144.0,19144.0
Baden,47.4729,8.308,Switzerland,CH,Aargau,,19122.0,19122.0
Onex,46.1833,6.1,Switzerland,CH,Genève,,18977.0,18977.0
Adliswil,47.3122,8.5256,Switzerland,CH,Zürich,,18731.0,18731.0
Schlieren,47.3989,8.4497,Switzerland,CH,Zürich,,18666.0,18666.0
Volketswil,47.3906,8.6953,Switzerland,CH,Zürich,,18615.0,18615.0
Pully,46.5167,6.6667,Switzerland,CH,Vaud,,18313.0,18313.0
Regensdorf,47.4383,8.4744,Switzerland,CH,Zürich,,18253.0,18253.0
Gossau,47.4164,9.25,Switzerland,CH,Sankt Gallen,,18171.0,18171.0
Muttenz,47.5228,7.6452,Switzerland,CH,Basel-Landschaft,,17805.0,17805.0
Thalwil,47.2953,8.5647,Switzerland,CH,Zürich,,17784.0,17784.0
Monthey,46.25,6.95,Switzerland,CH,Valais,,17563.0,17563.0
Ostermundigen,46.9553,7.4833,Switzerland,CH,Bern,,17546.0,17546.0
Littau,47.0494,8.2639,Switzerland,CH,Luzern,,17224.0,17224.0
Grenchen,47.1931,7.3958,Switzerland,CH,Solothurn,,17140.0,17140.0
Olten,47.3531,7.9078,Switzerland,CH,Solothurn,,17133.0,17133.0
Sierre,46.2918,7.532,Switzerland,CH,Valais,,16860.0,16860.0
Solothurn,47.2081,7.5375,Switzerland,CH,Solothurn,admin,16777.0,16777.0
Pratteln,47.5185,7.6928,Switzerland,CH,Basel-Landschaft,,16621.0,16621.0
Burgdorf,47.0567,7.6264,Switzerland,CH,Bern,,16280.0,16280.0
Freienbach,47.2047,8.7578,Switzerland,CH,Schwyz,,16269.0,16269.0
Wohlen,47.3506,8.2778,Switzerland,CH,Aargau,,16078.0,16078.0
Locarno,46.1664,8.7997,Switzerland,CH,Ticino,,16012.0,16012.0
Wallisellen,47.4122,8.5922,Switzerland,CH,Zürich,,15855.0,15855.0
Morges,46.5094,6.4986,Switzerland,CH,Vaud,,15838.0,15838.0
Steffisburg,46.7831,7.6333,Switzerland,CH,Bern,,15816.0,15816.0
Herisau,47.3851,9.2786,Switzerland,CH,Appenzell Ausserrhoden,,15780.0,15780.0
Langenthal,47.2153,7.7889,Switzerland,CH,Bern,,15639.0,15639.0
Binningen,47.5333,7.5667,Switzerland,CH,Basel-Landschaft,,15580.0,15580.0
Einsiedeln,47.1278,8.7431,Switzerland,CH,Schwyz,minor,15550.0,15550.0
Lyss,47.075,7.3069,Switzerland,CH,Bern,,15279.0,15279.0
Mendrisio,45.8667,8.9833,Switzerland,CH,Ticino,,14942.0,14942.0
Arbon,47.5167,9.4333,Switzerland,CH,Thurgau,,14537.0,14537.0
Liestal,47.4839,7.735,Switzerland,CH,Basel-Landschaft,admin,14390.0,14390.0
Stäfa,47.2401,8.7328,Switzerland,CH,Zürich,,14389.0,14389.0
Küsnacht,47.3181,8.5825,Switzerland,CH,Zürich,,14250.0,14250.0
Horw,47.0164,8.3111,Switzerland,CH,Luzern,,14243.0,14243.0
Schwyz,47.0211,8.6536,Switzerland,CH,Schwyz,admin,14177.0,14177.0
Thônex,46.2,6.2167,Switzerland,CH,Genève,,14122.0,14122.0
Meilen,47.2703,8.6411,Switzerland,CH,Zürich,,13999.0,13999.0
Oftringen,47.315,7.9236,Switzerland,CH,Aargau,,13791.0,13791.0
Amriswil,47.5497,9.3,Switzerland,CH,Thurgau,,13534.0,13534.0
Versoix,46.2833,6.1667,Switzerland,CH,Genève,,13422.0,13422.0
Richterswil,47.2081,8.7058,Switzerland,CH,Zürich,,13407.0,13407.0
Rheinfelden,47.5539,7.7958,Switzerland,CH,Aargau,minor,13337.0,13337.0
Brig-Glis,46.3159,7.9876,Switzerland,CH,Valais,minor,13109.0,13109.0
Gland,46.4167,6.2667,Switzerland,CH,Vaud,,13106.0,13106.0
Küssnacht,47.0828,8.4408,Switzerland,CH,Schwyz,minor,13084.0,13084.0
Muri,46.9319,7.4872,Switzerland,CH,Bern,,13058.0,13058.0
Zollikon,47.3422,8.5783,Switzerland,CH,Zürich,,13008.0,13008.0
Ecublens,46.5276,6.5605,Switzerland,CH,Vaud,,12854.0,12854.0
Spiez,46.6831,7.6664,Switzerland,CH,Bern,,12810.0,12810.0
Delémont,47.3653,7.3472,Switzerland,CH,Jura,admin,12682.0,12682.0
Buchs,47.1656,9.4711,Switzerland,CH,Sankt Gallen,,12612.0,12612.0
Prilly,46.5333,6.6,Switzerland,CH,Vaud,,12399.0,12399.0
Chêne-Bougeries,46.1833,6.1833,Switzerland,CH,Genève,,12215.0,12215.0
Le Grand-Saconnex,46.2333,6.1167,Switzerland,CH,Genève,,12162.0,12162.0
Rüti,47.2614,8.8556,Switzerland,CH,Zürich,,12098.0,12098.0
Münchenstein,47.5186,7.6174,Switzerland,CH,Basel-Landschaft,,12096.0,12096.0
Villars-sur-Glâne,46.7833,7.1167,Switzerland,CH,Fribourg,,12092.0,12092.0
Affoltern am Albis,47.2817,8.4502,Switzerland,CH,Zürich,,12080.0,12080.0
Arth,47.0644,8.5242,Switzerland,CH,Schwyz,,11983.0,11983.0
La Tour-de-Peilz,46.45,6.8667,Switzerland,CH,Vaud,,11829.0,11829.0
Pfäffikon,47.3667,8.7822,Switzerland,CH,Zürich,minor,11817.0,11817.0
Spreitenbach,47.4181,8.3661,Switzerland,CH,Aargau,,11788.0,11788.0
Altstätten,47.378,9.5488,Switzerland,CH,Sankt Gallen,minor,11730.0,11730.0
Zofingen,47.2884,7.9475,Switzerland,CH,Aargau,,11655.0,11655.0
Veyrier,46.1667,6.1833,Switzerland,CH,Genève,,11609.0,11609.0
Bassersdorf,47.4431,8.6283,Switzerland,CH,Zürich,,11593.0,11593.0
Weinfelden,47.5698,9.112,Switzerland,CH,Thurgau,minor,11534.0,11534.0
Belp,46.8914,7.4972,Switzerland,CH,Bern,,11439.0,11439.0
Worb,46.9306,7.5644,Switzerland,CH,Bern,,11311.0,11311.0
Hinwil,47.3033,8.8444,Switzerland,CH,Zürich,minor,11179.0,11179.0
Romanshorn,47.5635,9.3564,Switzerland,CH,Thurgau,,11167.0,11167.0
Oberwil,47.5135,7.5546,Switzerland,CH,Basel-Landschaft,,11136.0,11136.0
Brugg,47.4864,8.2083,Switzerland,CH,Aargau,,11129.0,11129.0
Möhlin,47.5583,7.8458,Switzerland,CH,Aargau,,11042.0,11042.0
Männedorf,47.2553,8.6917,Switzerland,CH,Zürich,,10957.0,10957.0
Davos,46.8091,9.8398,Switzerland,CH,Graubünden,minor,10862.0,10862.0
Plan-les-Ouates,46.1667,6.1167,Switzerland,CH,Genève,,10656.0,10656.0
Waltikon,47.3667,8.5833,Switzerland,CH,Zürich,,10600.0,10600.0
Lenzburg,47.3875,8.1803,Switzerland,CH,Aargau,,10569.0,10569.0
Flawil,47.4053,9.1977,Switzerland,CH,Sankt Gallen,,10520.0,10520.0
Neuhausen am Rheinfall,47.6831,8.6167,Switzerland,CH,Schaffhausen,,10510.0,10510.0
Le Locle,47.0532,6.7482,Switzerland,CH,Neuchâtel,,10433.0,10433.0
Suhr,47.3747,8.0806,Switzerland,CH,Aargau,,10424.0,10424.0
Sarnen,46.8969,8.2469,Switzerland,CH,Obwalden,admin,10368.0,10368.0
Aesch,47.4694,7.5942,Switzerland,CH,Basel-Landschaft,,10352.0,10352.0
Birsfelden,47.5531,7.6231,Switzerland,CH,Basel-Landschaft,,10299.0,10299.0
Lutry,46.5151,6.699,Switzerland,CH,Vaud,,10289.0,10289.0
Bernex,46.1784,6.0684,Switzerland,CH,Genève,,10233.0,10233.0
Maur,47.3417,8.6703,Switzerland,CH,Zürich,,10148.0,10148.0
Aigle,46.3173,6.9646,Switzerland,CH,Valais,,10131.0,10131.0
Naters,46.3237,7.9886,Switzerland,CH,Valais,,10073.0,10073.0
Steinhaus,47.1969,8.4861,Switzerland,CH,Luzern,,10025.0,10025.0
Therwil,47.4997,7.55,Switzerland,CH,Basel-Landschaft,,9947.0,9947.0
Payerne,46.8167,6.9333,Switzerland,CH,Vaud,,9943.0,9943.0
Gossau,47.3081,8.7567,Switzerland,CH,Zürich,,9937.0,9937.0
Sursee,47.1742,8.1081,Switzerland,CH,Luzern,minor,9900.0,9900.0
Hochdorf,47.1664,8.2889,Switzerland,CH,Luzern,,9832.0,9832.0
Urdorf,47.3867,8.4278,Switzerland,CH,Zürich,,9768.0,9768.0
Wald,47.2753,8.9144,Switzerland,CH,Zürich,,9758.0,9758.0
Estavayer-le-Lac,46.85,6.8472,Switzerland,CH,Fribourg,,9712.0,9712.0
Wittenbach,47.4667,9.3795,Switzerland,CH,Sankt Gallen,,9691.0,9691.0
Widnau,47.3997,9.6333,Switzerland,CH,Sankt Gallen,,9616.0,9616.0
Epalinges,46.55,6.6667,Switzerland,CH,Vaud,,9611.0,9611.0
Rorschach,47.4786,9.4936,Switzerland,CH,Sankt Gallen,minor,9439.0,9439.0
Embrach,47.5103,8.5933,Switzerland,CH,Zürich,,9419.0,9419.0
Altdorf,46.8806,8.6394,Switzerland,CH,Uri,admin,9401.0,9401.0
Langnau,46.9433,7.7853,Switzerland,CH,Bern,minor,9366.0,9366.0
Goldach,47.4831,9.4664,Switzerland,CH,Sankt Gallen,,9269.0,9269.0
Schübelbach,47.1733,8.9264,Switzerland,CH,Schwyz,,9249.0,9249.0
Arlesheim,47.4922,7.6203,Switzerland,CH,Basel-Landschaft,,9202.0,9202.0
Niederhasli,47.4822,8.4861,Switzerland,CH,Zürich,,9188.0,9188.0
Rothrist,47.3028,7.8833,Switzerland,CH,Aargau,,9121.0,9121.0
Aadorf,47.4939,8.8975,Switzerland,CH,Thurgau,,9036.0,9036.0
Ingenbohl,47.0028,8.6117,Switzerland,CH,Schwyz,,8912.0,8912.0
Oberriet,47.3164,9.5664,Switzerland,CH,Sankt Gallen,,8878.0,8878.0
Zuchwil,47.2056,7.5597,Switzerland,CH,Solothurn,,8875.0,8875.0
Unterägeri,47.1386,8.5844,Switzerland,CH,Zug,,8867.0,8867.0
Landquart,46.9497,9.5667,Switzerland,CH,Graubünden,,8849.0,8849.0
Neuenhof,47.4469,8.3292,Switzerland,CH,Aargau,,8824.0,8824.0
Hünenberg,47.1761,8.4264,Switzerland,CH,Zug,,8807.0,8807.0
Fully,46.1333,7.1167,Switzerland,CH,Valais,,8759.0,8759.0
Lachen,47.1911,8.8567,Switzerland,CH,Schwyz,minor,8754.0,8754.0
Wattwil,47.2957,9.083,Switzerland,CH,Sankt Gallen,,8736.0,8736.0
Bussy,46.55,6.55,Switzerland,CH,Vaud,,8736.0,8736.0
Conthey,46.2725,7.2548,Switzerland,CH,Valais,,8691.0,8691.0
Mels,47.0497,9.4167,Switzerland,CH,Sankt Gallen,,8620.0,8620.0
Egg,47.3019,8.6906,Switzerland,CH,Zürich,,8596.0,8596.0
Hombrechtikon,47.2533,8.7703,Switzerland,CH,Zürich,,8595.0,8595.0
Fällanden,47.3717,8.64,Switzerland,CH,Zürich,,8575.0,8575.0
Biberist,47.1828,7.5586,Switzerland,CH,Solothurn,,8567.0,8567.0
Obersiggenthal,47.4869,8.2921,Switzerland,CH,Aargau,,8565.0,8565.0
Le Mont-sur-Lausanne,46.55,6.6333,Switzerland,CH,Vaud,,8523.0,8523.0
Reinach,47.2539,8.1833,Switzerland,CH,Aargau,,8498.0,8498.0
Kilchberg,47.3247,8.5492,Switzerland,CH,Zürich,,8437.0,8437.0
Stans,46.9594,8.3667,Switzerland,CH,Nidwalden,admin,8393.0,8393.0
Oberentfelden,47.3597,8.0486,Switzerland,CH,Aargau,,8360.0,8360.0
Murten,46.9281,7.1169,Switzerland,CH,Fribourg,,8222.0,8222.0
Bagnes,46.0833,7.2167,Switzerland,CH,Valais,,8096.0,8096.0
Aarburg,47.3206,7.9014,Switzerland,CH,Aargau,,8068.0,8068.0
Domat/Ems,46.8198,9.4545,Switzerland,CH,Graubünden,minor,8037.0,8037.0
Chiasso,45.8353,9.032,Switzerland,CH,Ticino,,7975.0,7975.0
Buchs,47.3889,8.0747,Switzerland,CH,Aargau,,7966.0,7966.0
Düdingen,46.8461,7.1906,Switzerland,CH,Fribourg,,7961.0,7961.0
Crissier,46.55,6.5833,Switzerland,CH,Vaud,,7930.0,7930.0
Rümlang,47.4533,8.5331,Switzerland,CH,Zürich,,7929.0,7929.0
Visp,46.2922,7.8828,Switzerland,CH,Valais,,7891.0,7891.0
Muri,47.2747,8.3417,Switzerland,CH,Aargau,minor,7810.0,7810.0
Au,47.4331,9.6333,Switzerland,CH,Sankt Gallen,,7788.0,7788.0
Willisau,47.1206,7.9928,Switzerland,CH,Luzern,,7780.0,7780.0
Bex,46.25,7.0167,Switzerland,CH,Vaud,,7771.0,7771.0
Sirnach,47.4664,8.9997,Switzerland,CH,Thurgau,,7767.0,7767.0
Bremgarten,47.3528,8.34,Switzerland,CH,Aargau,minor,7765.0,7765.0
Gränichen,47.3583,8.0997,Switzerland,CH,Aargau,,7733.0,7733.0
Chavannes-près-Renens,46.5282,6.5762,Switzerland,CH,Vaud,,7724.0,7724.0
Savièse,46.25,7.3333,Switzerland,CH,Valais,,7712.0,7712.0
Dietlikon,47.42,8.6192,Switzerland,CH,Zürich,,7685.0,7685.0
Windisch,47.4803,8.2222,Switzerland,CH,Aargau,,7654.0,7654.0
Rothenburg,47.0939,8.2717,Switzerland,CH,Luzern,,7571.0,7571.0
Dürnten,47.2789,8.8433,Switzerland,CH,Zürich,,7518.0,7518.0
Langnau am Albis,47.2894,8.5414,Switzerland,CH,Zürich,,7500.0,7500.0
Ollon,46.2973,6.9935,Switzerland,CH,Vaud,,7497.0,7497.0
Hirslen,47.3646,8.5663,Switzerland,CH,Zürich,,7465.0,7465.0
Moutier,47.2803,7.3708,Switzerland,CH,Bern,,7378.0,7378.0
Villmergen,47.3483,8.2456,Switzerland,CH,Aargau,,7324.0,7324.0
Minusio,46.1833,8.8167,Switzerland,CH,Ticino,,7303.0,7303.0
Seuzach,47.5358,8.7294,Switzerland,CH,Zürich,,7291.0,7291.0
Rorschacherberg,47.4664,9.5,Switzerland,CH,Sankt Gallen,,7285.0,7285.0
Wollerau,47.1956,8.7194,Switzerland,CH,Schwyz,,7255.0,7255.0
Untersiggenthal,47.502,8.2538,Switzerland,CH,Aargau,,7240.0,7240.0
Meggen,47.0464,8.3744,Switzerland,CH,Luzern,,7238.0,7238.0
Herzogenbuchsee,47.1884,7.7062,Switzerland,CH,Bern,,7197.0,7197.0
Bubikon,47.2694,8.8203,Switzerland,CH,Zürich,,7194.0,7194.0
Reiden,47.2431,7.9683,Switzerland,CH,Luzern,,7131.0,7131.0
Altendorf,47.1922,8.83,Switzerland,CH,Schwyz,,7081.0,7081.0
Grabs,47.1831,9.45,Switzerland,CH,Sankt Gallen,,7068.0,7068.0
Orbe,46.7245,6.5322,Switzerland,CH,Vaud,,6987.0,6987.0
Châtel-Saint-Denis,46.5269,6.9011,Switzerland,CH,Fribourg,,6969.0,6969.0
Oberglatt,47.4775,8.52,Switzerland,CH,Zürich,,6964.0,6964.0
Frutigen,46.5831,7.6497,Switzerland,CH,Bern,,6921.0,6921.0
Ruswil,47.0836,8.1261,Switzerland,CH,Luzern,,6856.0,6856.0
Schwarzenburg,46.8167,7.3333,Switzerland,CH,Bern,,6829.0,6829.0
Heimberg,46.7831,7.5997,Switzerland,CH,Bern,,6827.0,6827.0
Saanen,46.4831,7.2664,Switzerland,CH,Bern,,6817.0,6817.0
Nidau,47.1256,7.2403,Switzerland,CH,Bern,,6815.0,6815.0
Dornach,47.4789,7.6181,Switzerland,CH,Solothurn,,6778.0,6778.0
Losone,46.1689,8.7421,Switzerland,CH,Ticino,,6701.0,6701.0
Bottmingen,47.5236,7.5697,Switzerland,CH,Basel-Landschaft,,6691.0,6691.0
Sissach,47.4644,7.8106,Switzerland,CH,Basel-Landschaft,,6681.0,6681.0
Porrentruy,47.4167,7.0833,Switzerland,CH,Jura,,6675.0,6675.0
Beromünster,47.1997,8.2,Switzerland,CH,Luzern,,6580.0,6580.0
Thal,47.4664,9.5667,Switzerland,CH,Sankt Gallen,,6570.0,6570.0
Oberengstringen,47.4103,8.4633,Switzerland,CH,Zürich,,6569.0,6569.0
Trimbach,47.3636,7.9,Switzerland,CH,Solothurn,,6543.0,6543.0
Wiesendangen,47.5222,8.7911,Switzerland,CH,Zürich,,6521.0,6521.0
Derendingen,47.1919,7.5899,Switzerland,CH,Solothurn,,6483.0,6483.0
Würenlos,47.4418,8.3647,Switzerland,CH,Aargau,,6482.0,6482.0
Diepoldsau,47.3831,9.65,Switzerland,CH,Sankt Gallen,,6469.0,6469.0
Frenkendorf,47.5031,7.7144,Switzerland,CH,Basel-Landschaft,,6435.0,6435.0
Uznach,47.2242,8.9839,Switzerland,CH,Sankt Gallen,,6416.0,6416.0
Oberuzwil,47.4294,9.1236,Switzerland,CH,Sankt Gallen,,6412.0,6412.0
Birmensdorf,47.3542,8.4378,Switzerland,CH,Zürich,,6385.0,6385.0
Fehraltorf,47.3861,8.7547,Switzerland,CH,Zürich,,6378.0,6378.0
Vétroz,46.2258,7.2707,Switzerland,CH,Valais,,6372.0,6372.0
Kerns,46.9025,8.2761,Switzerland,CH,Obwalden,,6337.0,6337.0
Menziken,47.24,8.1917,Switzerland,CH,Aargau,,6330.0,6330.0
Buchs,47.4589,8.4378,Switzerland,CH,Zürich,,6303.0,6303.0
Herrliberg,47.2972,8.6302,Switzerland,CH,Zürich,,6290.0,6290.0
Oensingen,47.2886,7.7139,Switzerland,CH,Solothurn,,6284.0,6284.0
Teufen,47.39,9.39,Switzerland,CH,Appenzell Ausserrhoden,,6265.0,6265.0
Bolligen,46.9761,7.4986,Switzerland,CH,Bern,,6262.0,6262.0
Rolle,46.4575,6.3317,Switzerland,CH,Vaud,,6259.0,6259.0
Massagno,46.0167,8.95,Switzerland,CH,Ticino,,6227.0,6227.0
Gelterkinden,47.4653,7.8528,Switzerland,CH,Basel-Landschaft,,6200.0,6200.0
Küttigen,47.4164,8.05,Switzerland,CH,Aargau,,6180.0,6180.0
Blonay,46.4667,6.9,Switzerland,CH,Vaud,,6173.0,6173.0
Boudry,46.95,6.8333,Switzerland,CH,Neuchâtel,,6152.0,6152.0
Uetikon am See,47.2669,8.6772,Switzerland,CH,Zürich,,6145.0,6145.0
Moudon,46.6687,6.7974,Switzerland,CH,Vaud,,6135.0,6135.0
Balsthal,47.3164,7.6944,Switzerland,CH,Solothurn,minor,6117.0,6117.0
Buchrain,47.0953,8.3475,Switzerland,CH,Luzern,,6116.0,6116.0
Biasca,46.35,8.9667,Switzerland,CH,Ticino,,6115.0,6115.0
Obererli,47.1358,8.6136,Switzerland,CH,Schwyz,,6080.0,6080.0
Alpnach,46.9499,8.2309,Switzerland,CH,Obwalden,,6031.0,6031.0
Bischofszell,47.4997,9.2333,Switzerland,CH,Thurgau,,6016.0,6016.0
Glarus,47.0333,9.0667,Switzerland,CH,Glarus,admin,5996.0,5996.0
Kirchberg,47.0858,7.5861,Switzerland,CH,Bern,,5965.0,5965.0
Dielsdorf,47.4836,8.4542,Switzerland,CH,Zürich,,5940.0,5940.0
Zell,47.4489,8.8233,Switzerland,CH,Zürich,,5929.0,5929.0
Saxon,46.15,7.1667,Switzerland,CH,Valais,,5897.0,5897.0
Uetendorf,46.7664,7.5667,Switzerland,CH,Bern,,5892.0,5892.0
Sankt Margrethen,47.4497,9.6331,Switzerland,CH,Appenzell Ausserrhoden,,5886.0,5886.0
Rüschlikon,47.3081,8.5542,Switzerland,CH,Zürich,,5830.0,5830.0
Peseux,46.9955,6.8895,Switzerland,CH,Neuchâtel,,5809.0,5809.0
Hergiswil,46.9844,8.3125,Switzerland,CH,Nidwalden,,5777.0,5777.0
Villeneuve,46.4063,6.9731,Switzerland,CH,Vaud,,5767.0,5767.0
Unterseen,46.6872,7.8497,Switzerland,CH,Bern,,5750.0,5750.0
Jegenstorf,47.0497,7.5069,Switzerland,CH,Bern,,5742.0,5742.0
Echallens,46.6333,6.6333,Switzerland,CH,Vaud,minor,5740.0,5740.0
Neftenbach,47.5283,8.6681,Switzerland,CH,Zürich,,5692.0,5692.0
Saint-Prex,46.4836,6.4575,Switzerland,CH,Vaud,,5679.0,5679.0
Walenstadt,47.1234,9.315,Switzerland,CH,Sankt Gallen,,5679.0,5679.0
Appenzell,47.3306,9.4086,Switzerland,CH,Appenzell Innerrhoden,admin,5649.0,5649.0
Zermatt,46.0193,7.7461,Switzerland,CH,Valais,,5643.0,5643.0
Mellingen,47.4192,8.2764,Switzerland,CH,Aargau,,5633.0,5633.0
Lindau,47.4431,8.6719,Switzerland,CH,Zürich,,5621.0,5621.0
Interlaken,46.6881,7.8646,Switzerland,CH,Bern,minor,5592.0,5592.0
Sennwald,47.2439,9.4768,Switzerland,CH,Sankt Gallen,,5592.0,5592.0
Nürensdorf,47.4467,8.6486,Switzerland,CH,Zürich,,5591.0,5591.0
Kaiseraugst,47.5414,7.7278,Switzerland,CH,Aargau,,5576.0,5576.0
Cologny,46.2167,6.1833,Switzerland,CH,Genève,,5570.0,5570.0
Erlenbach,47.3044,8.5922,Switzerland,CH,Zürich,,5567.0,5567.0
Frick,47.5081,8.0222,Switzerland,CH,Aargau,,5563.0,5563.0
Laufen,47.4167,7.5,Switzerland,CH,Basel-Landschaft,,5556.0,5556.0
Colombier,46.9667,6.8667,Switzerland,CH,Neuchâtel,,5547.0,5547.0
Fislisbach,47.4386,8.2944,Switzerland,CH,Aargau,,5544.0,5544.0
Bonstetten,47.3156,8.4692,Switzerland,CH,Zürich,,5543.0,5543.0
Ascona,46.15,8.7667,Switzerland,CH,Ticino,,5534.0,5534.0
Dagmersellen,47.2131,7.9894,Switzerland,CH,Luzern,,5503.0,5503.0
Rupperswil,47.4025,8.1278,Switzerland,CH,Aargau,,5486.0,5486.0
Thayngen,47.7331,8.6997,Switzerland,CH,Schaffhausen,,5453.0,5453.0
Courtepin,46.8667,7.1167,Switzerland,CH,Fribourg,,5451.0,5451.0
Schattdorf,46.8494,8.6713,Switzerland,CH,Uri,,5418.0,5418.0
Gebenstorf,47.4795,8.2424,Switzerland,CH,Aargau,,5414.0,5414.0
Adligenswil,47.0706,8.365,Switzerland,CH,Luzern,,5391.0,5391.0
Münchwilen,47.4815,8.9924,Switzerland,CH,Thurgau,minor,5377.0,5377.0
Greifensee,47.3661,8.6786,Switzerland,CH,Zürich,,5345.0,5345.0
Obfelden,47.2639,8.4242,Switzerland,CH,Zürich,,5340.0,5340.0
Buochs,46.9746,8.4207,Switzerland,CH,Nidwalden,,5312.0,5312.0
Vechigen,46.9469,7.5625,Switzerland,CH,Bern,,5298.0,5298.0
Seon,47.3458,8.1597,Switzerland,CH,Aargau,,5288.0,5288.0
Préverenges,46.5167,6.5333,Switzerland,CH,Vaud,,5287.0,5287.0
Konolfingen Dorf,46.8833,7.6167,Switzerland,CH,Bern,,5282.0,5282.0
Romont,46.7001,6.9181,Switzerland,CH,Fribourg,,5276.0,5276.0
Feusisberg,47.1869,8.7472,Switzerland,CH,Schwyz,,5262.0,5262.0
Lengnau,47.1817,7.3667,Switzerland,CH,Bern,,5254.0,5254.0
Bellach,47.215,7.5,Switzerland,CH,Solothurn,,5214.0,5214.0
Lausen,47.4725,7.7597,Switzerland,CH,Basel-Landschaft,,5209.0,5209.0
Gerlafingen,47.1722,7.5739,Switzerland,CH,Solothurn,,5202.0,5202.0
Hitzkirch,47.225,8.2622,Switzerland,CH,Luzern,,5201.0,5201.0
Glattfelden,47.5608,8.4994,Switzerland,CH,Zürich,,5189.0,5189.0
Saint Légier-La Chiésaz,46.4667,6.8833,Switzerland,CH,Vaud,,5184.0,5184.0
Eglisau,47.5733,8.5261,Switzerland,CH,Zürich,,5170.0,5170.0
Gommiswald,47.2404,9.0474,Switzerland,CH,Sankt Gallen,,5164.0,5164.0
Ettingen,47.4809,7.5444,Switzerland,CH,Basel-Landschaft,,5156.0,5156.0
Sachseln,46.8678,8.2386,Switzerland,CH,Obwalden,,5146.0,5146.0
Hägendorf,47.3344,7.8444,Switzerland,CH,Solothurn,,5137.0,5137.0
Zumikon,47.3328,8.6239,Switzerland,CH,Zürich,,5120.0,5120.0
Fraubrunnen,47.085,7.5269,Switzerland,CH,Bern,,5106.0,5106.0
Sevelen,47.1204,9.4857,Switzerland,CH,Sankt Gallen,,5103.0,5103.0
Schwerzenbach,47.3818,8.6559,Switzerland,CH,Zürich,,5088.0,5088.0
Oberrieden,47.2778,8.5781,Switzerland,CH,Zürich,,5083.0,5083.0
Wangen bei Olten,47.3442,7.8694,Switzerland,CH,Solothurn,,5056.0,5056.0
Wangen,47.1908,8.8956,Switzerland,CH,Schwyz,,5053.0,5053.0
Dulliken,47.3525,7.9458,Switzerland,CH,Solothurn,,5048.0,5048.0
Sumiswald,47.0275,7.7453,Switzerland,CH,Bern,,5046.0,5046.0
Root,47.1158,8.3914,Switzerland,CH,Luzern,,5040.0,5040.0
Ebnat-Kappel,47.2632,9.1234,Switzerland,CH,Sankt Gallen,,5031.0,5031.0
Bäretswil,47.3369,8.8575,Switzerland,CH,Zürich,,5026.0,5026.0
Chavornay,46.7065,6.569,Switzerland,CH,Vaud,,5000.0,5000.0
Saint Moritz,46.4972,9.8378,Switzerland,CH,Graubünden,,4994.0,4994.0
Bauma,47.3681,8.8778,Switzerland,CH,Zürich,,4925.0,4925.0
Geroldswil,47.4228,8.4108,Switzerland,CH,Zürich,,4918.0,4918.0
Niederglatt,47.4922,8.5033,Switzerland,CH,Zürich,,4917.0,4917.0
Schönenwerd,47.3719,8.0028,Switzerland,CH,Solothurn,,4910.0,4910.0
Bettlach,47.2039,7.425,Switzerland,CH,Solothurn,,4910.0,4910.0
Elgg,47.4914,8.8645,Switzerland,CH,Zürich,,4903.0,4903.0
Strengelbach,47.2817,7.9292,Switzerland,CH,Aargau,,4893.0,4893.0
Mettmenstetten,47.2447,8.4644,Switzerland,CH,Zürich,,4865.0,4865.0
Sainte-Croix,46.8237,6.4889,Switzerland,CH,Vaud,,4863.0,4863.0
Flums,47.0928,9.3439,Switzerland,CH,Sankt Gallen,,4856.0,4856.0
Kaltbrunn,47.2164,9.0333,Switzerland,CH,Sankt Gallen,,4839.0,4839.0
Huttwil,47.1164,7.85,Switzerland,CH,Bern,,4836.0,4836.0
Sigriswil,46.7164,7.7167,Switzerland,CH,Bern,,4832.0,4832.0
Ehrendingen,47.4995,8.3443,Switzerland,CH,Aargau,,4823.0,4823.0
Ennetbürgen,46.9844,8.4139,Switzerland,CH,Nidwalden,,4801.0,4801.0
Balgach,47.4,9.5997,Switzerland,CH,Sankt Gallen,,4797.0,4797.0
Zuzwil,47.4713,9.1022,Switzerland,CH,Sankt Gallen,,4785.0,4785.0
Niederlenz,47.4025,8.1764,Switzerland,CH,Aargau,,4776.0,4776.0
Berikon,47.3525,8.3736,Switzerland,CH,Aargau,,4776.0,4776.0
Weiningen,47.4208,8.4356,Switzerland,CH,Zürich,,4760.0,4760.0
Oetwil am See,47.2708,8.7211,Switzerland,CH,Zürich,,4754.0,4754.0
Turbenthal,47.4383,8.8442,Switzerland,CH,Zürich,,4748.0,4748.0
Cortaillod,46.944,6.8479,Switzerland,CH,Neuchâtel,,4729.0,4729.0
Wängi,47.5,8.9497,Switzerland,CH,Thurgau,,4720.0,4720.0
Niederbipp,47.2658,7.6958,Switzerland,CH,Bern,,4715.0,4715.0
Egnach,47.5497,9.3833,Switzerland,CH,Thurgau,,4711.0,4711.0
Oberkirch,47.1564,8.1158,Switzerland,CH,Luzern,,4707.0,4707.0
Würenlingen,47.5322,8.2566,Switzerland,CH,Aargau,,4701.0,4701.0
Gordola,46.1884,8.8638,Switzerland,CH,Ticino,,4697.0,4697.0
Troistorrents,46.2333,6.9167,Switzerland,CH,Valais,,4683.0,4683.0
Saint-Sulpice,46.5167,6.5667,Switzerland,CH,Vaud,,4668.0,4668.0
Triengen,47.2358,8.0758,Switzerland,CH,Luzern,,4652.0,4652.0
Le Landeron,47.0554,7.0691,Switzerland,CH,Neuchâtel,,4645.0,4645.0
Beringen,47.6964,8.5754,Switzerland,CH,Schaffhausen,,4643.0,4643.0
Tägerwilen,47.6556,9.1311,Switzerland,CH,Thurgau,,4642.0,4642.0
Aarberg,47.0458,7.2764,Switzerland,CH,Bern,minor,4629.0,4629.0
Confignon,46.1834,6.0833,Switzerland,CH,Genève,,4627.0,4627.0
Meiringen,46.7283,8.1861,Switzerland,CH,Bern,,4621.0,4621.0
Stabio,45.85,8.9333,Switzerland,CH,Ticino,,4591.0,4591.0
Scuol,46.797,10.2995,Switzerland,CH,Graubünden,,4591.0,4591.0
Le Chenit,46.6,6.2333,Switzerland,CH,Vaud,,4586.0,4586.0
Stansstad,46.9803,8.3389,Switzerland,CH,Nidwalden,,4576.0,4576.0
Morbio Inferiore,45.85,9.0167,Switzerland,CH,Ticino,,4575.0,4575.0
Saint-Maurice,46.219,7.0047,Switzerland,CH,Valais,minor,4571.0,4571.0
Tramelan,47.2233,7.1014,Switzerland,CH,Bern,,4564.0,4564.0
Menzingen,47.1803,8.5917,Switzerland,CH,Zug,,4540.0,4540.0
Monte Ceneri,46.125,8.92,Switzerland,CH,Ticino,,4521.0,4521.0
Bronschhofen,47.4831,9.0331,Switzerland,CH,Sankt Gallen,,4515.0,4515.0
Aarwangen,47.2414,7.7708,Switzerland,CH,Bern,,4514.0,4514.0
Winkel,47.4922,8.5539,Switzerland,CH,Zürich,,4511.0,4511.0
Füllinsdorf,47.5056,7.7297,Switzerland,CH,Basel-Landschaft,,4484.0,4484.0
Zufikon,47.3459,8.3595,Switzerland,CH,Aargau,,4479.0,4479.0
Kölliken,47.3375,8.0236,Switzerland,CH,Aargau,,4476.0,4476.0
Rafz,47.6122,8.5408,Switzerland,CH,Zürich,,4462.0,4462.0
Oberbüren,47.45,9.1664,Switzerland,CH,Sankt Gallen,,4447.0,4447.0
Agno,46.0002,8.9001,Switzerland,CH,Ticino,,4445.0,4445.0
Klosters Platz,46.8548,9.9538,Switzerland,CH,Graubünden,,4437.0,4437.0
Schötz,47.1711,7.9894,Switzerland,CH,Luzern,,4434.0,4434.0
Schöftland,47.3053,8.0528,Switzerland,CH,Aargau,,4393.0,4393.0
Bubendorf,47.4497,7.7364,Switzerland,CH,Basel-Landschaft,,4389.0,4389.0
Brügg,47.1264,7.2817,Switzerland,CH,Bern,,4388.0,4388.0
Rebstein,47.3997,9.5833,Switzerland,CH,Sankt Gallen,,4387.0,4387.0
Speicher,47.4106,9.4433,Switzerland,CH,Appenzell Ausserrhoden,,4379.0,4379.0
Eschlikon,47.461,8.959,Switzerland,CH,Thurgau,,4372.0,4372.0
Weggis,47.0322,8.4383,Switzerland,CH,Luzern,,4368.0,4368.0
Gachnang,47.5331,8.85,Switzerland,CH,Thurgau,,4364.0,4364.0
Caslano,45.9699,8.8795,Switzerland,CH,Ticino,,4356.0,4356.0
Russikon,47.3953,8.7778,Switzerland,CH,Zürich,,4355.0,4355.0
Birr,47.4358,8.2028,Switzerland,CH,Aargau,,4354.0,4354.0
Cheseaux-sur-Lausanne,46.5833,6.6,Switzerland,CH,Vaud,,4342.0,4342.0
Wolhusen,47.0617,8.0744,Switzerland,CH,Luzern,,4340.0,4340.0
Utzenstorf,47.1269,7.5572,Switzerland,CH,Bern,,4331.0,4331.0
Kehrsatz,46.9094,7.4708,Switzerland,CH,Bern,,4302.0,4302.0
Wichtrach,46.8428,7.5764,Switzerland,CH,Bern,,4294.0,4294.0
Avenches,46.88,7.0398,Switzerland,CH,Vaud,,4292.0,4292.0
Sins,47.1914,8.3969,Switzerland,CH,Aargau,,4259.0,4259.0
Bad Zurzach,47.5872,8.2944,Switzerland,CH,Aargau,minor,4242.0,4242.0
Uitikon,47.3719,8.4531,Switzerland,CH,Zürich,,4239.0,4239.0
Schüpfheim,46.95,8.015,Switzerland,CH,Luzern,minor,4219.0,4219.0
Lucens,46.7092,6.8373,Switzerland,CH,Vaud,,4200.0,4200.0
Lens,46.2667,7.4333,Switzerland,CH,Valais,,4198.0,4198.0
Vouvry,46.3333,6.8833,Switzerland,CH,Valais,,4198.0,4198.0
Satigny,46.2141,6.0368,Switzerland,CH,Genève,,4185.0,4185.0
Engelberg,46.8206,8.4028,Switzerland,CH,Obwalden,,4181.0,4181.0
Sempach,47.1328,8.1936,Switzerland,CH,Luzern,,4169.0,4169.0
Gross Höchstetten,46.8997,7.6333,Switzerland,CH,Bern,,4165.0,4165.0
Heiden,47.4411,9.5311,Switzerland,CH,Appenzell Ausserrhoden,,4161.0,4161.0
Unterentfelden,47.3692,8.0417,Switzerland,CH,Aargau,,4155.0,4155.0
Lützelflüh,47.0091,7.6892,Switzerland,CH,Bern,,4146.0,4146.0
Paradiso,45.9833,8.95,Switzerland,CH,Ticino,,4144.0,4144.0
Degersheim,47.3667,9.1997,Switzerland,CH,Sankt Gallen,,4129.0,4129.0
Niederrohrdorf,47.4235,8.3049,Switzerland,CH,Aargau,,4105.0,4105.0
Matten,46.6664,7.8497,Switzerland,CH,Bern,,4101.0,4101.0
Dällikon,47.4406,8.4389,Switzerland,CH,Zürich,,4100.0,4100.0
Roggwil,47.2417,7.8236,Switzerland,CH,Bern,,4079.0,4079.0
Oberrohrdorf,47.4219,8.3167,Switzerland,CH,Aargau,,4072.0,4072.0
Ayent,46.328,7.4103,Switzerland,CH,Valais,,4059.0,4059.0
Döttingen,47.5706,8.2597,Switzerland,CH,Aargau,,4057.0,4057.0
Hilterfingen,46.7432,7.6582,Switzerland,CH,Bern,,4044.0,4044.0
Prangins,46.4,6.25,Switzerland,CH,Vaud,,4038.0,4038.0
Leysin,46.3333,7.0,Switzerland,CH,Vaud,,4032.0,4032.0
Hunzenschwil,47.3858,8.1264,Switzerland,CH,Aargau,,4014.0,4014.0
Diessenhofen,47.6833,8.7497,Switzerland,CH,Thurgau,,3998.0,3998.0
Seengen,47.3275,8.2083,Switzerland,CH,Aargau,,3994.0,3994.0
Bürglen,46.875,8.6628,Switzerland,CH,Uri,,3976.0,3976.0
Berneck,47.4246,9.6125,Switzerland,CH,Sankt Gallen,,3963.0,3963.0
Brittnau,47.2608,7.9472,Switzerland,CH,Aargau,,3954.0,3954.0
Böttstein,47.5567,8.2247,Switzerland,CH,Aargau,,3952.0,3952.0
Lostorf,47.3844,7.95,Switzerland,CH,Solothurn,,3952.0,3952.0
Leuk,46.3167,7.6333,Switzerland,CH,Valais,,3948.0,3948.0
Magden,47.5289,7.8153,Switzerland,CH,Aargau,,3915.0,3915.0
Chamoson,46.2,7.2167,Switzerland,CH,Valais,,3897.0,3897.0
Dottikon,47.3844,8.2403,Switzerland,CH,Aargau,,3881.0,3881.0
Muhen,47.3331,8.0528,Switzerland,CH,Aargau,,3877.0,3877.0
Sulgen,47.5423,9.1931,Switzerland,CH,Thurgau,,3869.0,3869.0
Niedergösgen,47.3736,7.9931,Switzerland,CH,Solothurn,,3865.0,3865.0
Nottwil,47.1347,8.1369,Switzerland,CH,Luzern,,3857.0,3857.0
Breitenbach,47.4083,7.5444,Switzerland,CH,Solothurn,,3854.0,3854.0
Pfungen,47.5156,8.6469,Switzerland,CH,Zürich,,3845.0,3845.0
Safenwil,47.3192,7.9833,Switzerland,CH,Aargau,,3842.0,3842.0
Bürglen,47.5497,9.1497,Switzerland,CH,Thurgau,,3841.0,3841.0
Vallorbe,46.7167,6.3833,Switzerland,CH,Vaud,,3837.0,3837.0
Schänis,47.1588,9.0466,Switzerland,CH,Sankt Gallen,,3818.0,3818.0
Unterengstringen,47.4147,8.4497,Switzerland,CH,Zürich,,3804.0,3804.0
Grindelwald,46.6256,8.0333,Switzerland,CH,Bern,,3801.0,3801.0
Bevaix,46.9312,6.8041,Switzerland,CH,Neuchâtel,,3784.0,3784.0
Langendorf,47.2206,7.5144,Switzerland,CH,Solothurn,,3781.0,3781.0
Founex,46.3364,6.1851,Switzerland,CH,Vaud,,3774.0,3774.0
Jonschwil,47.4283,9.0885,Switzerland,CH,Sankt Gallen,,3773.0,3773.0
Steckborn,47.6664,8.9831,Switzerland,CH,Thurgau,,3753.0,3753.0
Reichenburg,47.1694,8.9744,Switzerland,CH,Schwyz,,3751.0,3751.0
Erlen,47.5497,9.2331,Switzerland,CH,Thurgau,,3749.0,3749.0
La Neuveville,47.0653,7.0944,Switzerland,CH,Bern,,3738.0,3738.0
Hedingen,47.2986,8.4494,Switzerland,CH,Zürich,,3734.0,3734.0
Schüpfen,47.0358,7.3747,Switzerland,CH,Bern,,3732.0,3732.0
Belmont-sur-Lausanne,46.5265,6.6876,Switzerland,CH,Vaud,,3721.0,3721.0
Mönchaltorf,47.3114,8.7222,Switzerland,CH,Zürich,,3715.0,3715.0
Schmerikon,47.2253,8.95,Switzerland,CH,Sankt Gallen,,3709.0,3709.0
Widen,47.37,8.3581,Switzerland,CH,Aargau,,3698.0,3698.0
Port,47.1167,7.25,Switzerland,CH,Bern,,3695.0,3695.0
Stallikon,47.3272,8.4908,Switzerland,CH,Zürich,,3687.0,3687.0
Egerkingen,47.3219,7.7944,Switzerland,CH,Solothurn,,3683.0,3683.0
Beckenried,46.9665,8.4747,Switzerland,CH,Nidwalden,,3672.0,3672.0
Walchwil,47.0997,8.5164,Switzerland,CH,Zug,,3663.0,3663.0
Elsau,47.5061,8.8028,Switzerland,CH,Zürich,,3660.0,3660.0
Giswil,46.8359,8.1188,Switzerland,CH,Obwalden,,3657.0,3657.0
Rüti,47.3206,9.43,Switzerland,CH,Appenzell Innerrhoden,,3648.0,3648.0
Hausen am Albis,47.2447,8.5344,Switzerland,CH,Zürich,,3646.0,3646.0
Feuerthalen,47.6922,8.6453,Switzerland,CH,Zürich,,3636.0,3636.0
Hausen,47.4622,8.2139,Switzerland,CH,Aargau,,3633.0,3633.0
Tavannes,47.2208,7.2014,Switzerland,CH,Bern,,3626.0,3626.0
Laufenburg,47.5608,8.0594,Switzerland,CH,Aargau,minor,3626.0,3626.0
Reichenbach im Kandertal,46.5753,7.7371,Switzerland,CH,Bern,,3616.0,3616.0
Hittnau,47.37,8.8239,Switzerland,CH,Zürich,,3613.0,3613.0
Stein,47.4997,9.4333,Switzerland,CH,Sankt Gallen,,3604.0,3604.0
Plaffeien,46.7412,7.2871,Switzerland,CH,Fribourg,,3594.0,3594.0
Eschenbach,47.1328,8.3197,Switzerland,CH,Luzern,,3589.0,3589.0
Mörschwil,47.4676,9.4261,Switzerland,CH,Sankt Gallen,,3585.0,3585.0
Büren an der Aare,47.1403,7.3722,Switzerland,CH,Bern,,3580.0,3580.0
Ins,47.0,7.1,Switzerland,CH,Bern,,3564.0,3564.0
Erlinsbach,47.4067,8.0069,Switzerland,CH,Aargau,,3556.0,3556.0
Merenschwand,47.2622,8.3775,Switzerland,CH,Aargau,,3549.0,3549.0
Chalais,46.2477,7.5302,Switzerland,CH,Valais,,3524.0,3524.0
Attalens,46.5167,6.85,Switzerland,CH,Fribourg,,3521.0,3521.0
Poschiavo,46.3333,10.0497,Switzerland,CH,Graubünden,,3516.0,3516.0
Waldkirch,47.4664,9.2831,Switzerland,CH,Sankt Gallen,,3500.0,3500.0
Ennetbaden,47.4817,8.3167,Switzerland,CH,Aargau,,3498.0,3498.0
Klingnau,47.5831,8.25,Switzerland,CH,Aargau,,3480.0,3480.0
Luterbach,47.2194,7.5861,Switzerland,CH,Solothurn,,3479.0,3479.0
Gams,47.2,9.4333,Switzerland,CH,Sankt Gallen,,3471.0,3471.0
Steinmaur,47.4942,8.4478,Switzerland,CH,Zürich,,3460.0,3460.0
Château-d’Oex,46.4667,7.1167,Switzerland,CH,Vaud,,3459.0,3459.0
Ermatingen,47.6692,9.0797,Switzerland,CH,Thurgau,,3455.0,3455.0
Selzach,47.2056,7.4556,Switzerland,CH,Solothurn,,3453.0,3453.0
Münsterlingen,47.6313,9.2337,Switzerland,CH,Thurgau,,3448.0,3448.0
Grimisuat,46.2667,7.3833,Switzerland,CH,Valais,,3445.0,3445.0
Zizers,46.9361,9.5653,Switzerland,CH,Graubünden,,3434.0,3434.0
Yvonand,46.8,6.75,Switzerland,CH,Vaud,,3427.0,3427.0
Rheineck,47.4701,9.5834,Switzerland,CH,Sankt Gallen,,3419.0,3419.0
Steinen,47.0489,8.6114,Switzerland,CH,Schwyz,,3417.0,3417.0
Berg,47.5664,9.1664,Switzerland,CH,Thurgau,,3410.0,3410.0
Bösingen,46.9,7.2333,Switzerland,CH,Fribourg,,3408.0,3408.0
Vacallo,45.85,9.0333,Switzerland,CH,Ticino,,3398.0,3398.0
Thunstetten,47.2039,7.7569,Switzerland,CH,Bern,,3395.0,3395.0
Corsier-sur-Vevey,46.4667,6.85,Switzerland,CH,Vaud,,3390.0,3390.0
Stein am Rhein,47.6594,8.8592,Switzerland,CH,Schaffhausen,,3376.0,3376.0
Adelboden,46.4931,7.5586,Switzerland,CH,Bern,,3371.0,3371.0
Rickenbach,47.2194,8.1536,Switzerland,CH,Luzern,,3364.0,3364.0
Grüningen,47.2842,8.7625,Switzerland,CH,Zürich,,3361.0,3361.0
Grandson,46.8085,6.6443,Switzerland,CH,Vaud,,3357.0,3357.0
Savigny,46.5667,6.7167,Switzerland,CH,Vaud,,3357.0,3357.0
Staufen,47.3833,8.1667,Switzerland,CH,Aargau,,3336.0,3336.0
Bonaduz,46.8164,9.4,Switzerland,CH,Graubünden,,3330.0,3330.0
Entlebuch,46.9928,8.0631,Switzerland,CH,Luzern,,3315.0,3315.0
Courroux,47.3692,7.393,Switzerland,CH,Jura,,3314.0,3314.0
Romanel-sur-Lausanne,46.5667,6.6,Switzerland,CH,Vaud,,3309.0,3309.0
Tuggen,47.2031,8.9456,Switzerland,CH,Schwyz,,3309.0,3309.0
Trimmis,46.8958,9.5642,Switzerland,CH,Graubünden,,3304.0,3304.0
Weisslingen,47.4325,8.7639,Switzerland,CH,Zürich,,3301.0,3301.0
Bellevue,46.25,6.15,Switzerland,CH,Genève,,3299.0,3299.0
Buttisholz,47.1136,8.0944,Switzerland,CH,Luzern,,3294.0,3294.0
Penthalaz,46.6128,6.5291,Switzerland,CH,Vaud,,3283.0,3283.0
Belfaux,46.8287,7.095,Switzerland,CH,Fribourg,,3281.0,3281.0
Madiswil,47.1664,7.8,Switzerland,CH,Bern,,3277.0,3277.0
Beinwil am See,47.2678,8.2025,Switzerland,CH,Aargau,,3276.0,3276.0
Balerna,45.85,9.0,Switzerland,CH,Ticino,,3269.0,3269.0
Rüegsbach,47.0164,7.6831,Switzerland,CH,Bern,,3258.0,3258.0
Bätterkinden,47.1333,7.5333,Switzerland,CH,Bern,,3251.0,3251.0
Aubonne,46.5,6.3833,Switzerland,CH,Vaud,,3241.0,3241.0
Grosswangen,47.1331,8.05,Switzerland,CH,Luzern,,3241.0,3241.0
Kappel,47.325,7.85,Switzerland,CH,Solothurn,,3237.0,3237.0
Thusis,46.6885,9.4328,Switzerland,CH,Graubünden,minor,3217.0,3217.0
Ardon,46.2,7.25,Switzerland,CH,Valais,,3212.0,3212.0
Saint-Blaise,47.0131,6.9864,Switzerland,CH,Neuchâtel,,3211.0,3211.0
Leytron,46.1833,7.2,Switzerland,CH,Valais,,3204.0,3204.0
Subingen,47.1967,7.6153,Switzerland,CH,Solothurn,,3201.0,3201.0
Stein,47.5442,7.9514,Switzerland,CH,Aargau,,3198.0,3198.0
Ursy,46.6333,6.8333,Switzerland,CH,Fribourg,,3198.0,3198.0
Arosa,46.7831,9.6831,Switzerland,CH,Graubünden,,3185.0,3185.0
Orsières,45.9723,7.1016,Switzerland,CH,Valais,,3183.0,3183.0
Kirchlindach,47.0,7.4111,Switzerland,CH,Bern,,3158.0,3158.0
Hofstetten,47.4775,7.5153,Switzerland,CH,Sankt Gallen,,3157.0,3157.0
Le Mouret,46.75,7.1667,Switzerland,CH,Fribourg,,3153.0,3153.0
Coppet,46.3214,6.1891,Switzerland,CH,Vaud,,3152.0,3152.0
Niederhelfenschwil,47.4833,9.1831,Switzerland,CH,Sankt Gallen,,3149.0,3149.0
Hettlingen,47.5478,8.7097,Switzerland,CH,Zürich,,3147.0,3147.0
Neerach,47.5117,8.4725,Switzerland,CH,Zürich,,3140.0,3140.0
Laupen,46.9,7.2331,Switzerland,CH,Fribourg,,3138.0,3138.0
Oberdorf,46.9525,8.3819,Switzerland,CH,Nidwalden,,3121.0,3121.0
Seedorf,47.0347,7.3125,Switzerland,CH,Bern,,3114.0,3114.0
Stettlen,46.9594,7.5236,Switzerland,CH,Bern,,3113.0,3113.0
Lupfig,47.4414,8.2,Switzerland,CH,Aargau,,3113.0,3113.0
Brienz,46.7497,8.0333,Switzerland,CH,Bern,,3090.0,3090.0
Torricella,46.0667,8.9167,Switzerland,CH,Ticino,,3087.0,3087.0
Unterkulm,47.3122,8.115,Switzerland,CH,Aargau,,3086.0,3086.0
Gais,47.3606,9.4511,Switzerland,CH,Appenzell Ausserrhoden,,3086.0,3086.0
Roggwil,47.4994,9.395,Switzerland,CH,Thurgau,,3068.0,3068.0
Echichens,46.5333,6.5,Switzerland,CH,Vaud,,3059.0,3059.0
Benken,47.1924,8.9957,Switzerland,CH,Sankt Gallen,,3025.0,3025.0
Niederweningen,47.5075,8.3789,Switzerland,CH,Zürich,,3024.0,3024.0
Zweisimmen,46.5497,7.3664,Switzerland,CH,Bern,,3020.0,3020.0
Grossaffoltern,47.0667,7.3597,Switzerland,CH,Bern,,3017.0,3017.0
Turgi,47.4946,8.2527,Switzerland,CH,Aargau,,3014.0,3014.0
Schafisheim,47.3789,8.1431,Switzerland,CH,Aargau,,2997.0,2997.0
Courrendlin,47.3333,7.3667,Switzerland,CH,Jura,,2995.0,2995.0
Birmenstorf,47.4636,8.25,Switzerland,CH,Aargau,,2992.0,2992.0
Müllheim,47.6028,9.0037,Switzerland,CH,Thurgau,,2991.0,2991.0
Mühleberg,46.9497,7.2667,Switzerland,CH,Bern,,2985.0,2985.0
Murgenthal,47.2664,7.8333,Switzerland,CH,Aargau,,2984.0,2984.0
Meisterschwanden,47.2961,8.2303,Switzerland,CH,Aargau,,2960.0,2960.0
Chardonne,46.4886,6.8216,Switzerland,CH,Vaud,,2944.0,2944.0
Geuensee,47.1997,8.1069,Switzerland,CH,Luzern,,2940.0,2940.0
Coldrerio,45.85,8.9833,Switzerland,CH,Ticino,,2939.0,2939.0
Schenkon,47.1736,8.1369,Switzerland,CH,Luzern,,2939.0,2939.0
Quarten,47.0997,9.2333,Switzerland,CH,Sankt Gallen,,2937.0,2937.0
Wattenwil,46.77,7.5072,Switzerland,CH,Bern,,2935.0,2935.0
Oberburg,47.0389,7.6275,Switzerland,CH,Bern,,2934.0,2934.0
Waltenschwil,47.3358,8.3053,Switzerland,CH,Aargau,,2933.0,2933.0
Cadenazzo,46.15,8.95,Switzerland,CH,Ticino,,2932.0,2932.0
Samedan,46.5336,9.8719,Switzerland,CH,Graubünden,,2924.0,2924.0
Matzingen,47.5197,8.9325,Switzerland,CH,Thurgau,,2917.0,2917.0
Faido,46.4833,8.8,Switzerland,CH,Ticino,,2903.0,2903.0
Sarmenstorf,47.3122,8.25,Switzerland,CH,Aargau,,2902.0,2902.0
Etoy,46.4833,6.4167,Switzerland,CH,Vaud,,2898.0,2898.0
Märstetten,47.6,9.0664,Switzerland,CH,Thurgau,,2898.0,2898.0
Othmarsingen,47.4012,8.2153,Switzerland,CH,Aargau,,2897.0,2897.0
Mosnang,47.35,9.0331,Switzerland,CH,Sankt Gallen,,2881.0,2881.0
Menznau,47.0831,8.0392,Switzerland,CH,Luzern,,2879.0,2879.0
Puidoux,46.4833,6.7667,Switzerland,CH,Vaud,,2878.0,2878.0
Commugny,46.3167,6.1833,Switzerland,CH,Vaud,,2874.0,2874.0
Täuffelen,47.0667,7.2,Switzerland,CH,Bern,,2872.0,2872.0
Däniken,47.3567,7.9819,Switzerland,CH,Solothurn,,2851.0,2851.0
Rorbas,47.5341,8.5684,Switzerland,CH,Zürich,,2837.0,2837.0
Boswil,47.3011,8.3139,Switzerland,CH,Aargau,,2837.0,2837.0
Flims,46.8331,9.2831,Switzerland,CH,Graubünden,,2834.0,2834.0
Otelfingen,47.4608,8.3911,Switzerland,CH,Zürich,,2831.0,2831.0
Niederwil,47.3803,8.2972,Switzerland,CH,Aargau,,2830.0,2830.0
Bergdietikon,47.3942,8.3861,Switzerland,CH,Aargau,,2828.0,2828.0
Ennenda,47.0336,9.0775,Switzerland,CH,Glarus,,2808.0,2808.0
Orpund,47.1389,7.3064,Switzerland,CH,Bern,,2799.0,2799.0
Fischingen,47.4164,8.9667,Switzerland,CH,Thurgau,,2791.0,2791.0
Ballwil,47.1497,8.3164,Switzerland,CH,Luzern,,2786.0,2786.0
Gretzenbach,47.3581,7.9986,Switzerland,CH,Solothurn,,2783.0,2783.0
Genthod,46.2667,6.15,Switzerland,CH,Genève,,2782.0,2782.0
Riaz,46.6333,7.0667,Switzerland,CH,Fribourg,,2780.0,2780.0
Rickenbach bei Wil,47.4497,9.0497,Switzerland,CH,Thurgau,,2774.0,2774.0
Rain,47.1308,8.2575,Switzerland,CH,Luzern,,2770.0,2770.0
Horn,47.4953,9.463,Switzerland,CH,Thurgau,,2752.0,2752.0
Ettiswil,47.1486,8.0172,Switzerland,CH,Luzern,,2747.0,2747.0
Lengnau,47.5222,8.3306,Switzerland,CH,Aargau,,2740.0,2740.0
Cugy,46.5815,6.6437,Switzerland,CH,Vaud,,2737.0,2737.0
Lauterbrunnen,46.5997,7.9086,Switzerland,CH,Bern,,2732.0,2732.0
Vionnaz,46.3167,6.9,Switzerland,CH,Valais,,2727.0,2727.0
Höri,47.5086,8.51,Switzerland,CH,Zürich,,2721.0,2721.0
Oberkulm,47.3,8.1236,Switzerland,CH,Aargau,,2718.0,2718.0
Corminboeuf,46.8,7.1,Switzerland,CH,Fribourg,,2695.0,2695.0
Muralto,46.1667,8.8,Switzerland,CH,Ticino,,2683.0,2683.0
Montanaire,46.6667,6.7333,Switzerland,CH,Vaud,,2683.0,2683.0
Schiers,46.9664,9.6833,Switzerland,CH,Graubünden,,2679.0,2679.0
Pfaffnau,47.2278,7.8994,Switzerland,CH,Luzern,,2678.0,2678.0
Evilard,47.1514,7.2389,Switzerland,CH,Bern,,2674.0,2674.0
Kaisten,47.54,8.0458,Switzerland,CH,Aargau,,2670.0,2670.0
Signau,46.9217,7.7267,Switzerland,CH,Bern,,2659.0,2659.0
Rickenbach,47.5525,8.7958,Switzerland,CH,Zürich,,2655.0,2655.0
Wilderswil,46.6664,7.8667,Switzerland,CH,Bern,,2655.0,2655.0
Mont-sur-Rolle,46.4667,6.3333,Switzerland,CH,Vaud,,2654.0,2654.0
Broc,46.6,7.1,Switzerland,CH,Fribourg,,2651.0,2651.0
Riva San Vitale,45.9,8.9667,Switzerland,CH,Ticino,,2646.0,2646.0
Lenzerheide,46.7289,9.5567,Switzerland,CH,Graubünden,,2641.0,2641.0
Nebikon,47.1925,7.9781,Switzerland,CH,Luzern,,2635.0,2635.0
Bioggio,46.0167,8.9,Switzerland,CH,Ticino,,2626.0,2626.0
Hauterive,47.0167,6.9667,Switzerland,CH,Neuchâtel,,2623.0,2623.0
Felsberg,46.8331,9.4664,Switzerland,CH,Graubünden,,2622.0,2622.0
Saillon,46.1667,7.1833,Switzerland,CH,Valais,,2618.0,2618.0
Rapperswil,47.0631,7.41,Switzerland,CH,Bern,,2617.0,2617.0
Lauperswil,46.9661,7.7417,Switzerland,CH,Bern,,2615.0,2615.0
Courtételle,47.3309,7.3176,Switzerland,CH,Jura,,2610.0,2610.0
Saignelégier,47.25,7.0,Switzerland,CH,Jura,,2608.0,2608.0
La Sarraz,46.658,6.5084,Switzerland,CH,Vaud,,2595.0,2595.0
Lonay,46.5333,6.5167,Switzerland,CH,Vaud,,2592.0,2592.0
Maggia,46.248,8.708,Switzerland,CH,Ticino,,2592.0,2592.0
Buchegg,47.1361,7.4764,Switzerland,CH,Solothurn,,2580.0,2580.0
Froideville,46.5982,6.6918,Switzerland,CH,Vaud,,2579.0,2579.0
Saint-Cergue,46.45,6.15,Switzerland,CH,Vaud,,2575.0,2575.0
Endingen,47.5386,8.2903,Switzerland,CH,Aargau,,2574.0,2574.0
Neyruz,46.7667,7.0667,Switzerland,CH,Fribourg,,2566.0,2566.0
Lotzwil,47.1914,7.7931,Switzerland,CH,Bern,,2565.0,2565.0
Ringgenberg,46.7029,7.8951,Switzerland,CH,Bern,,2561.0,2561.0
Zunzgen,47.4493,7.8079,Switzerland,CH,Basel-Landschaft,,2560.0,2560.0
Inwil,47.1219,8.3497,Switzerland,CH,Luzern,,2557.0,2557.0
Ottenbach,47.2814,8.4039,Switzerland,CH,Zürich,,2556.0,2556.0
Riggisberg,46.8094,7.4781,Switzerland,CH,Bern,,2553.0,2553.0
Affeltrangen,47.5164,9.0167,Switzerland,CH,Thurgau,,2551.0,2551.0
Kemmen,47.6164,9.1664,Switzerland,CH,Thurgau,,2545.0,2545.0
Büron,47.2133,8.0947,Switzerland,CH,Luzern,,2540.0,2540.0
Wimmis,46.6752,7.6376,Switzerland,CH,Bern,,2538.0,2538.0
Bönigen,46.6864,7.8946,Switzerland,CH,Bern,,2535.0,2535.0
Hölstein,47.4261,7.7701,Switzerland,CH,Basel-Landschaft,,2528.0,2528.0
Sant’ Antonino,46.15,8.9833,Switzerland,CH,Ticino,,2525.0,2525.0
Roveredo,46.2348,9.1257,Switzerland,CH,Graubünden,,2520.0,2520.0
Wilen,47.45,9.0333,Switzerland,CH,Sankt Gallen,,2520.0,2520.0
Untervaz,46.9275,9.535,Switzerland,CH,Graubünden,,2517.0,2517.0
Toffen,46.8588,7.4924,Switzerland,CH,Bern,,2509.0,2509.0
Fischenthal,47.3322,8.9211,Switzerland,CH,Zürich,,2504.0,2504.0
Troinex,46.1631,6.1475,Switzerland,CH,Genève,,2501.0,2501.0
Vandœuvres,46.2167,6.2,Switzerland,CH,Genève,,2484.0,2484.0
Corcelles-près-Payerne,46.8333,6.9667,Switzerland,CH,Vaud,,2480.0,2480.0
Hohenrain,47.1808,8.3178,Switzerland,CH,Luzern,,2474.0,2474.0
Puplinge,46.2108,6.2322,Switzerland,CH,Genève,,2465.0,2465.0
Oetwil an der Limmat,47.4308,8.3942,Switzerland,CH,Zürich,,2464.0,2464.0
Meikirch,47.0097,7.3653,Switzerland,CH,Bern,,2461.0,2461.0
Wigoltingen,47.5958,9.0329,Switzerland,CH,Thurgau,,2457.0,2457.0
Saint-Léonard,46.2566,7.4269,Switzerland,CH,Valais,,2442.0,2442.0
Eggiwil,46.8757,7.7957,Switzerland,CH,Bern,,2438.0,2438.0
Oberdorf,47.3919,7.7514,Switzerland,CH,Basel-Landschaft,,2434.0,2434.0
Thierachern,46.75,7.5667,Switzerland,CH,Bern,,2428.0,2428.0
Hägglingen,47.3891,8.2523,Switzerland,CH,Aargau,,2422.0,2422.0
Grône,46.25,7.45,Switzerland,CH,Valais,,2414.0,2414.0
Rothenthurm,47.1042,8.6744,Switzerland,CH,Schwyz,,2412.0,2412.0
Vuadens,46.6167,7.0167,Switzerland,CH,Fribourg,,2405.0,2405.0
Anières,46.2667,6.2167,Switzerland,CH,Genève,,2402.0,2402.0
Zwingen,47.4331,7.5333,Switzerland,CH,Basel-Landschaft,,2399.0,2399.0
Saint-Aubin-Sauges,46.8949,6.7773,Switzerland,CH,Neuchâtel,,2399.0,2399.0
Rüthi,47.2958,9.5373,Switzerland,CH,Sankt Gallen,,2399.0,2399.0
Unteriberg,47.0622,8.8036,Switzerland,CH,Schwyz,,2395.0,2395.0
Rüderswil,46.9844,7.7239,Switzerland,CH,Bern,,2383.0,2383.0
Novazzano,45.85,8.9833,Switzerland,CH,Ticino,,2380.0,2380.0
Malans,46.9819,9.5761,Switzerland,CH,Graubünden,,2378.0,2378.0
Wiedlisbach,47.252,7.6467,Switzerland,CH,Bern,,2377.0,2377.0
Freienstein,47.5322,8.5847,Switzerland,CH,Zürich,,2376.0,2376.0
Ueberstorf,46.8695,7.3264,Switzerland,CH,Fribourg,,2375.0,2375.0
Lufingen,47.4897,8.5942,Switzerland,CH,Zürich,,2373.0,2373.0
Krauchthal,47.0108,7.5681,Switzerland,CH,Bern,,2365.0,2365.0
Pfeffingen,47.46,7.5906,Switzerland,CH,Basel-Landschaft,,2336.0,2336.0
Hildisrieden,47.15,8.2292,Switzerland,CH,Luzern,,2333.0,2333.0
Gersau,46.9911,8.5247,Switzerland,CH,Schwyz,minor,2332.0,2332.0
Courgenay,47.4,7.1333,Switzerland,CH,Jura,,2329.0,2329.0
Vuisternens-devant-Romont,46.65,6.9333,Switzerland,CH,Fribourg,,2324.0,2324.0
Reconvilier,47.2361,7.2222,Switzerland,CH,Bern,,2317.0,2317.0
Urnäsch,47.3181,9.2858,Switzerland,CH,Appenzell Ausserrhoden,,2315.0,2315.0
Martigny-Combe,46.0833,7.05,Switzerland,CH,Valais,,2314.0,2314.0
Wangen an der Aare,47.2311,7.6502,Switzerland,CH,Bern,,2311.0,2311.0
Riedholz,47.23,7.5681,Switzerland,CH,Solothurn,,2310.0,2310.0
Zeiningen,47.5428,7.8708,Switzerland,CH,Aargau,,2310.0,2310.0
Knonau,47.2247,8.4614,Switzerland,CH,Zürich,,2301.0,2301.0
Bardonnex,46.1333,6.1,Switzerland,CH,Genève,,2299.0,2299.0
Büsserach,47.3914,7.5403,Switzerland,CH,Solothurn,,2296.0,2296.0
Oberbuchsiten,47.3108,7.7667,Switzerland,CH,Solothurn,,2296.0,2296.0
Eiken,47.5331,7.9903,Switzerland,CH,Aargau,,2289.0,2289.0
Neunkirch,47.69,8.4989,Switzerland,CH,Schaffhausen,,2289.0,2289.0
Worben,47.1007,7.2965,Switzerland,CH,Bern,,2286.0,2286.0
Corseaux,46.4667,6.8333,Switzerland,CH,Vaud,,2282.0,2282.0
Udligenswil,47.0906,8.4006,Switzerland,CH,Luzern,,2280.0,2280.0
Wolfwil,47.2692,7.7931,Switzerland,CH,Solothurn,,2272.0,2272.0
Stadel bei Niederglatt,47.5294,8.4664,Switzerland,CH,Zürich,,2271.0,2271.0
Henggart,47.565,8.6856,Switzerland,CH,Zürich,,2256.0,2256.0
Neuheim,47.2067,8.5778,Switzerland,CH,Zug,,2255.0,2255.0
Schinznach Dorf,47.4486,8.1445,Switzerland,CH,Aargau,,2255.0,2255.0
Canobbio,46.0333,8.9667,Switzerland,CH,Ticino,,2249.0,2249.0
Diemtigen,46.6494,7.5651,Switzerland,CH,Bern,,2248.0,2248.0
Wauwil,47.1831,8.0167,Switzerland,CH,Luzern,,2247.0,2247.0
Sankt Niklaus,46.1833,7.8,Switzerland,CH,Valais,,2239.0,2239.0
Chexbres,46.4843,6.7801,Switzerland,CH,Vaud,,2238.0,2238.0
Gimel,46.5102,6.3066,Switzerland,CH,Vaud,,2238.0,2238.0
Siviriez,46.65,6.8833,Switzerland,CH,Fribourg,,2238.0,2238.0
Neuendorf,47.3025,7.7944,Switzerland,CH,Solothurn,,2236.0,2236.0
Knutwil,47.1997,8.0722,Switzerland,CH,Luzern,,2229.0,2229.0
Dintikon,47.365,8.2292,Switzerland,CH,Aargau,,2228.0,2228.0
Bottighofen,47.6397,9.2014,Switzerland,CH,Thurgau,,2226.0,2226.0
Cazis,46.7372,9.4267,Switzerland,CH,Graubünden,,2223.0,2223.0
Hallau,47.6966,8.4578,Switzerland,CH,Schaffhausen,,2220.0,2220.0
Ormalingen,47.4706,7.8764,Switzerland,CH,Basel-Landschaft,,2215.0,2215.0
Savosa,46.0167,8.95,Switzerland,CH,Ticino,,2213.0,2213.0
Altnau,47.6073,9.2612,Switzerland,CH,Thurgau,,2208.0,2208.0
Deitingen,47.2158,7.6236,Switzerland,CH,Solothurn,,2207.0,2207.0
Obergösgen,47.3664,7.9528,Switzerland,CH,Solothurn,,2203.0,2203.0
Stetten,47.4014,8.3069,Switzerland,CH,Aargau,,2201.0,2201.0
Andelfingen,47.5947,8.6789,Switzerland,CH,Zürich,,2201.0,2201.0
Gruyères,46.5836,7.0819,Switzerland,CH,Fribourg,,2199.0,2199.0
Ennetmoos,46.9567,8.3372,Switzerland,CH,Nidwalden,,2193.0,2193.0
Gontenschwil,47.2733,8.1472,Switzerland,CH,Aargau,,2171.0,2171.0
Leuggern,47.5819,8.2194,Switzerland,CH,Aargau,,2169.0,2169.0
Pontresina,46.4997,9.8997,Switzerland,CH,Graubünden,,2162.0,2162.0
Castel San Pietro,45.8823,9.0153,Switzerland,CH,Ticino,,2159.0,2159.0
Aegerten,47.1164,7.2833,Switzerland,CH,Bern,,2158.0,2158.0
Itingen,47.4648,7.7848,Switzerland,CH,Basel-Landschaft,,2157.0,2157.0
Auw,47.2122,8.3664,Switzerland,CH,Aargau,,2157.0,2157.0
Seftigen,46.7867,7.5408,Switzerland,CH,Bern,,2143.0,2143.0
Fahrwangen,47.2958,8.2431,Switzerland,CH,Aargau,,2136.0,2136.0
Meinier,46.243,6.2351,Switzerland,CH,Genève,,2131.0,2131.0
Villigen,47.5262,8.2196,Switzerland,CH,Aargau,,2126.0,2126.0
Werthenstein,47.0561,8.1017,Switzerland,CH,Luzern,,2121.0,2121.0
Lungern,46.7872,8.1597,Switzerland,CH,Obwalden,,2119.0,2119.0
Mägenwil,47.4136,8.2333,Switzerland,CH,Appenzell Ausserrhoden,,2110.0,2110.0
Corsier,46.2621,6.2283,Switzerland,CH,Genève,,2108.0,2108.0
Jonen,47.2983,8.3972,Switzerland,CH,Aargau,,2108.0,2108.0
Marbach,47.3917,9.5681,Switzerland,CH,Sankt Gallen,,2105.0,2105.0
Wolfenschiessen,46.9094,8.3972,Switzerland,CH,Nidwalden,,2097.0,2097.0
Koppigen,47.1344,7.6042,Switzerland,CH,Bern,,2095.0,2095.0
Mies,46.3,6.1667,Switzerland,CH,Vaud,,2078.0,2078.0
Forel,46.5379,6.7629,Switzerland,CH,Vaud,,2078.0,2078.0
Kleinandelfingen,47.6,8.6831,Switzerland,CH,Zürich,,2077.0,2077.0
Sankt Antoni,46.8167,7.2667,Switzerland,CH,Fribourg,,2076.0,2076.0
Grüsch,46.9664,9.6331,Switzerland,CH,Graubünden,,2076.0,2076.0
Killwangen,47.4316,8.346,Switzerland,CH,Aargau,,2074.0,2074.0
Ersigen,47.0917,7.5942,Switzerland,CH,Bern,,2066.0,2066.0
Wynigen,47.1067,7.6681,Switzerland,CH,Bern,,2060.0,2060.0
Oberlunkhofen,47.3125,8.3977,Switzerland,CH,Aargau,,2037.0,2037.0
Zell,47.1357,7.9263,Switzerland,CH,Luzern,,2037.0,2037.0
Comano,46.0333,8.95,Switzerland,CH,Ticino,,2035.0,2035.0
Alterswil,46.7926,7.2638,Switzerland,CH,Fribourg,,2028.0,2028.0
Gorgier,46.9,6.7833,Switzerland,CH,Neuchâtel,,2021.0,2021.0
Vollèges,46.0833,7.1667,Switzerland,CH,Valais,,2018.0,2018.0
Brütten,47.4731,8.6744,Switzerland,CH,Zürich,,2016.0,2016.0
Pfyn,47.6022,8.9527,Switzerland,CH,Thurgau,,2016.0,2016.0
Andwil,47.4406,9.281,Switzerland,CH,Sankt Gallen,,2014.0,2014.0
Recherswil,47.1636,7.5944,Switzerland,CH,Solothurn,,2009.0,2009.0
Remetschwil,47.4108,8.3319,Switzerland,CH,Aargau,,1991.0,1991.0
Silenen,46.7911,8.6692,Switzerland,CH,Uri,,1991.0,1991.0
Aeugst am Albis,47.2675,8.4853,Switzerland,CH,Zürich,,1982.0,1982.0
Flüeln,46.9146,8.646,Switzerland,CH,Uri,,1972.0,1972.0
Walzenhausen,47.4511,9.6014,Switzerland,CH,Appenzell Ausserrhoden,,1971.0,1971.0
Wila,47.4183,8.8492,Switzerland,CH,Zürich,,1971.0,1971.0
Barbengo,45.9622,8.9153,Switzerland,CH,Ticino,,1970.0,1970.0
Val-d’Illiez,46.2,6.9,Switzerland,CH,Valais,,1961.0,1961.0
Flühli,46.8831,8.0164,Switzerland,CH,Luzern,,1961.0,1961.0
Vordemwald,47.2761,7.9,Switzerland,CH,Aargau,,1954.0,1954.0
Begnins,46.4333,6.25,Switzerland,CH,Vaud,,1950.0,1950.0
Marthalen,47.6267,8.6506,Switzerland,CH,Zürich,,1949.0,1949.0
Churwalden,46.7808,9.5433,Switzerland,CH,Graubünden,,1949.0,1949.0
Servion,46.5667,6.7833,Switzerland,CH,Vaud,,1944.0,1944.0
Raron,46.31,7.8,Switzerland,CH,Valais,,1944.0,1944.0
Sattel,47.0808,8.6339,Switzerland,CH,Schwyz,,1938.0,1938.0
Genolier,46.4333,6.2167,Switzerland,CH,Vaud,,1937.0,1937.0
Tolochenaz,46.5,6.4667,Switzerland,CH,Vaud,,1932.0,1932.0
Dachsen,47.6656,8.6186,Switzerland,CH,Zürich,,1931.0,1931.0
Hochfelden,47.5244,8.5167,Switzerland,CH,Zürich,,1927.0,1927.0
Avry-sur-Matran,46.7833,7.0667,Switzerland,CH,Fribourg,,1921.0,1921.0
Grolley,46.8333,7.0667,Switzerland,CH,Fribourg,,1920.0,1920.0
Winznau,47.3656,7.9333,Switzerland,CH,Solothurn,,1919.0,1919.0
Kallnach,47.0222,7.2361,Switzerland,CH,Bern,,1918.0,1918.0
Oberegg,47.4222,9.5533,Switzerland,CH,Appenzell Innerrhoden,,1916.0,1916.0
Vezia,46.0167,8.9333,Switzerland,CH,Ticino,,1914.0,1914.0
Marsens,46.65,7.0667,Switzerland,CH,Fribourg,,1909.0,1909.0
Ponte Capriasca,46.0667,8.95,Switzerland,CH,Ticino,,1904.0,1904.0
Malleray,47.2386,7.2708,Switzerland,CH,Bern,,1903.0,1903.0
Cressier,47.0508,7.0356,Switzerland,CH,Neuchâtel,,1886.0,1886.0
Vernayaz,46.1333,7.0333,Switzerland,CH,Valais,,1885.0,1885.0
Nunningen,47.3942,7.6194,Switzerland,CH,Solothurn,,1880.0,1880.0
Lichtensteig,47.3164,9.0831,Switzerland,CH,Sankt Gallen,minor,1870.0,1870.0
Dänikon,47.4469,8.4069,Switzerland,CH,Zürich,,1869.0,1869.0
Waldstatt,47.3575,9.2858,Switzerland,CH,Appenzell Ausserrhoden,,1869.0,1869.0
Dardagny,46.1952,5.9946,Switzerland,CH,Genève,,1864.0,1864.0
Röschenz,47.4248,7.4759,Switzerland,CH,Basel-Landschaft,,1863.0,1863.0
Seedorf,46.8828,8.6131,Switzerland,CH,Uri,,1858.0,1858.0
Uttwil,47.5844,9.341,Switzerland,CH,Thurgau,,1857.0,1857.0
Laax,46.846,9.2279,Switzerland,CH,Graubünden,,1857.0,1857.0
Charrat,46.1167,7.1333,Switzerland,CH,Valais,,1849.0,1849.0
Alle,47.4257,7.1291,Switzerland,CH,Jura,,1849.0,1849.0
Le Noirmont,47.2137,6.9441,Switzerland,CH,Jura,,1847.0,1847.0
Grellingen,47.4422,7.5897,Switzerland,CH,Basel-Landschaft,,1845.0,1845.0
Dallenwil,46.9344,8.3917,Switzerland,CH,Nidwalden,,1845.0,1845.0
Kirchdorf,46.8203,7.5497,Switzerland,CH,Bern,,1844.0,1844.0
Schönenberg,47.1939,8.6447,Switzerland,CH,Zürich,,1844.0,1844.0
Arni,47.3192,8.4222,Switzerland,CH,Aargau,,1843.0,1843.0
Wolfhalden,47.4539,9.5508,Switzerland,CH,Appenzell Ausserrhoden,,1837.0,1837.0
Veyras,46.3,7.5333,Switzerland,CH,Valais,,1833.0,1833.0
Pont-en-Ogoz,46.6833,7.0833,Switzerland,CH,Fribourg,,1824.0,1824.0
Laupersdorf,47.315,7.6514,Switzerland,CH,Solothurn,,1813.0,1813.0
Biglen,46.9278,7.6267,Switzerland,CH,Bern,,1811.0,1811.0
Vex,46.2167,7.4,Switzerland,CH,Valais,,1811.0,1811.0
Acquarossa,46.4599,8.9273,Switzerland,CH,Ticino,,1808.0,1808.0
Kestenholz,47.2833,7.7542,Switzerland,CH,Solothurn,,1805.0,1805.0
Melide,45.95,8.95,Switzerland,CH,Ticino,,1802.0,1802.0
Saint-Aubin,46.89,6.9806,Switzerland,CH,Fribourg,,1801.0,1801.0
Bühler,47.3728,9.4211,Switzerland,CH,Appenzell Ausserrhoden,,1798.0,1798.0
Oberweningen,47.5033,8.4078,Switzerland,CH,Zürich,,1797.0,1797.0
Niederdorf,47.4078,7.7533,Switzerland,CH,Basel-Landschaft,,1795.0,1795.0
Rüeggisberg,46.8218,7.4394,Switzerland,CH,Bern,,1791.0,1791.0
Massongex,46.25,6.9833,Switzerland,CH,Valais,,1785.0,1785.0
Amden,47.1489,9.1408,Switzerland,CH,Sankt Gallen,,1782.0,1782.0
Fulenbach,47.2775,7.8361,Switzerland,CH,Solothurn,,1776.0,1776.0
Sorengo,46.0,8.9333,Switzerland,CH,Ticino,,1774.0,1774.0
Brissago,46.1167,8.7,Switzerland,CH,Ticino,,1773.0,1773.0
Römerswil,47.1694,8.2447,Switzerland,CH,Luzern,,1769.0,1769.0
Oberbipp,47.2614,7.6592,Switzerland,CH,Bern,,1767.0,1767.0
Walkringen,46.9467,7.62,Switzerland,CH,Bern,,1767.0,1767.0
Avully,46.1675,5.9985,Switzerland,CH,Genève,,1756.0,1756.0
Cugy,46.8147,6.8908,Switzerland,CH,Fribourg,,1752.0,1752.0
Weiach,47.5581,8.4375,Switzerland,CH,Zürich,,1750.0,1750.0
Penthaz,46.6,6.5333,Switzerland,CH,Vaud,,1749.0,1749.0
Künten,47.3896,8.3303,Switzerland,CH,Aargau,,1749.0,1749.0
Rehetobel,47.4278,9.4816,Switzerland,CH,Appenzell Ausserrhoden,,1747.0,1747.0
Erlenbach im Simmental,46.6608,7.5529,Switzerland,CH,Bern,,1744.0,1744.0
Eschenz,47.65,8.8664,Switzerland,CH,Thurgau,,1743.0,1743.0
Hasle,46.9783,8.0467,Switzerland,CH,Luzern,,1743.0,1743.0
Lamone,46.05,8.9333,Switzerland,CH,Ticino,,1741.0,1741.0
Wilchingen,47.6664,8.4667,Switzerland,CH,Schaffhausen,,1737.0,1737.0
Trogen,47.4075,9.4647,Switzerland,CH,Appenzell Ausserrhoden,,1735.0,1735.0
Lengwil,47.6164,9.1831,Switzerland,CH,Thurgau,,1734.0,1734.0
Hüttwilen,47.5997,8.8667,Switzerland,CH,Thurgau,,1729.0,1729.0
Attinghausen,46.8611,8.6281,Switzerland,CH,Uri,,1725.0,1725.0
Weesen,47.1427,9.0933,Switzerland,CH,Sankt Gallen,,1723.0,1723.0
Oberdorf,47.2319,7.5042,Switzerland,CH,Solothurn,,1723.0,1723.0
Starrkirch,47.3483,7.9264,Switzerland,CH,Solothurn,,1714.0,1714.0
La Roche,46.7,7.1333,Switzerland,CH,Fribourg,,1711.0,1711.0
Schwarzenberg,47.0142,8.1733,Switzerland,CH,Luzern,,1709.0,1709.0
Corgémont,47.1911,7.1386,Switzerland,CH,Bern,,1706.0,1706.0
Wagenhausen,47.6597,8.8486,Switzerland,CH,Thurgau,,1694.0,1694.0
Bellmund,47.1029,7.2432,Switzerland,CH,Bern,,1689.0,1689.0
Chancy,46.1476,5.9789,Switzerland,CH,Genève,,1686.0,1686.0
Fontenais,47.4,7.0833,Switzerland,CH,Jura,,1685.0,1685.0
Evolène,46.1128,7.4961,Switzerland,CH,Valais,,1684.0,1684.0
Schleitheim,47.7493,8.4851,Switzerland,CH,Schaffhausen,,1681.0,1681.0
Teufenthal,47.3317,8.1167,Switzerland,CH,Aargau,,1672.0,1672.0
Niederönz,47.1836,7.6894,Switzerland,CH,Bern,,1670.0,1670.0
Langwiesen,47.6708,8.6367,Switzerland,CH,Zürich,,1669.0,1669.0
Rüschegg,46.7797,7.3931,Switzerland,CH,Bern,,1661.0,1661.0
Koblenz,47.6097,8.2372,Switzerland,CH,Aargau,,1656.0,1656.0
Diegten,47.4133,7.8112,Switzerland,CH,Basel-Landschaft,,1656.0,1656.0
Gunzgen,47.3164,7.8292,Switzerland,CH,Solothurn,,1652.0,1652.0
Brislach,47.4188,7.5428,Switzerland,CH,Basel-Landschaft,,1652.0,1652.0
Roche,46.35,6.9167,Switzerland,CH,Vaud,,1647.0,1647.0
Härkingen,47.3094,7.8181,Switzerland,CH,Solothurn,,1644.0,1644.0
Arisdorf,47.5128,7.765,Switzerland,CH,Basel-Landschaft,,1638.0,1638.0
Giffers,46.7614,7.2103,Switzerland,CH,Fribourg,,1634.0,1634.0
Villnachern,47.4714,8.1608,Switzerland,CH,Aargau,,1632.0,1632.0
Cudrefin,46.9521,7.0271,Switzerland,CH,Vaud,,1632.0,1632.0
Wynau,47.2608,7.8111,Switzerland,CH,Bern,,1629.0,1629.0
Eich,47.1506,8.1678,Switzerland,CH,Luzern,,1626.0,1626.0
Magliaso,45.9833,8.8833,Switzerland,CH,Ticino,,1620.0,1620.0
Chippis,46.2833,7.5333,Switzerland,CH,Valais,,1617.0,1617.0
Sisseln,47.5544,7.9903,Switzerland,CH,Aargau,,1616.0,1616.0
Denges,46.5234,6.539,Switzerland,CH,Vaud,,1611.0,1611.0
Eysins,46.3833,6.2,Switzerland,CH,Vaud,,1608.0,1608.0
Saas-Fee,46.1097,7.9292,Switzerland,CH,Valais,,1597.0,1597.0
Zäziwil,46.9017,7.6617,Switzerland,CH,Bern,,1595.0,1595.0
Arch,47.1679,7.4326,Switzerland,CH,Bern,,1592.0,1592.0
Güttingen,47.5964,9.2864,Switzerland,CH,Thurgau,,1591.0,1591.0
Hirschthal,47.3206,8.0517,Switzerland,CH,Aargau,,1590.0,1590.0
Bière,46.5333,6.3333,Switzerland,CH,Vaud,,1590.0,1590.0
Ziefen,47.4314,7.7053,Switzerland,CH,Basel-Landschaft,,1589.0,1589.0
Berg,47.5,8.15,Switzerland,CH,Aargau,,1589.0,1589.0
Reigoldswil,47.3983,7.6914,Switzerland,CH,Basel-Landschaft,,1582.0,1582.0
Luzein,46.9197,9.7668,Switzerland,CH,Graubünden,,1582.0,1582.0
Auenstein,47.4178,8.1358,Switzerland,CH,Aargau,,1581.0,1581.0
Heimiswil,47.0644,7.6597,Switzerland,CH,Bern,,1580.0,1580.0
Porza,46.0167,8.95,Switzerland,CH,Ticino,,1579.0,1579.0
Altishofen,47.1997,7.9667,Switzerland,CH,Luzern,,1577.0,1577.0
Lütisburg,47.3947,9.0811,Switzerland,CH,Sankt Gallen,,1576.0,1576.0
Tannay,46.3,6.1833,Switzerland,CH,Vaud,,1574.0,1574.0
Schwellbrunn,47.3523,9.249,Switzerland,CH,Appenzell Ausserrhoden,,1573.0,1573.0
Biberstein,47.4141,8.0818,Switzerland,CH,Aargau,,1571.0,1571.0
Ossingen,47.6128,8.7269,Switzerland,CH,Zürich,,1566.0,1566.0
Wohlenschwil,47.4115,8.259,Switzerland,CH,Aargau,,1565.0,1565.0
Pfäfers,46.9831,9.4997,Switzerland,CH,Sankt Gallen,,1564.0,1564.0
Cornaux,47.0387,7.0199,Switzerland,CH,Neuchâtel,,1563.0,1563.0
Bellikon,47.3891,8.3436,Switzerland,CH,Aargau,,1562.0,1562.0
Seeberg,47.155,7.6647,Switzerland,CH,Bern,,1560.0,1560.0
Auvernier,46.9763,6.8783,Switzerland,CH,Neuchâtel,,1559.0,1559.0
Bedano,46.05,8.9167,Switzerland,CH,Ticino,,1551.0,1551.0
Dinhard,47.5575,8.7697,Switzerland,CH,Zürich,,1551.0,1551.0
Salgesch,46.3,7.5667,Switzerland,CH,Valais,,1547.0,1547.0
Herznach,47.4747,8.0514,Switzerland,CH,Aargau,,1545.0,1545.0
Homburg,47.6333,9.0164,Switzerland,CH,Thurgau,,1543.0,1543.0
Duggingen,47.45,7.6,Switzerland,CH,Basel-Landschaft,,1541.0,1541.0
Perroy,46.4667,6.3667,Switzerland,CH,Vaud,,1536.0,1536.0
Lommiswil,47.2217,7.4711,Switzerland,CH,Solothurn,,1535.0,1535.0
Jongny,46.4876,6.8466,Switzerland,CH,Vaud,,1534.0,1534.0
Oberrüti,47.1661,8.3948,Switzerland,CH,Aargau,,1534.0,1534.0
Cadempino,46.0333,8.9333,Switzerland,CH,Ticino,,1530.0,1530.0
Wikon,47.2628,7.9658,Switzerland,CH,Luzern,,1528.0,1528.0
Airolo,46.5333,8.6167,Switzerland,CH,Ticino,,1527.0,1527.0
Zernez,46.6997,10.0997,Switzerland,CH,Graubünden,,1527.0,1527.0
Les Breuleux,47.2052,7.0025,Switzerland,CH,Jura,,1526.0,1526.0
Rue,46.6167,6.8167,Switzerland,CH,Fribourg,,1526.0,1526.0
Buchholterberg,46.8164,7.6833,Switzerland,CH,Bern,,1526.0,1526.0
Eichberg,47.343,9.5308,Switzerland,CH,Sankt Gallen,,1524.0,1524.0
Matran,46.7839,7.091,Switzerland,CH,Fribourg,,1521.0,1521.0
Melchnau,47.1831,7.8528,Switzerland,CH,Bern,,1517.0,1517.0
Niederbüren,47.4664,9.2,Switzerland,CH,Sankt Gallen,,1514.0,1514.0
Lumino,46.2383,9.068,Switzerland,CH,Ticino,,1513.0,1513.0
Tägerig,47.4039,8.2806,Switzerland,CH,Aargau,,1511.0,1511.0
Cottens,46.75,7.0333,Switzerland,CH,Fribourg,,1509.0,1509.0
Guggisberg,46.7664,7.3331,Switzerland,CH,Bern,,1508.0,1508.0
Bossonnens,46.5167,6.85,Switzerland,CH,Fribourg,,1505.0,1505.0
Paudex,46.5084,6.6737,Switzerland,CH,Vaud,,1504.0,1504.0
Attiswil,47.2472,7.6135,Switzerland,CH,Bern,,1504.0,1504.0
Aristau,47.2856,8.3624,Switzerland,CH,Aargau,,1498.0,1498.0
Rhäzüns,46.7997,9.3997,Switzerland,CH,Graubünden,,1496.0,1496.0
Rohrbach,47.1372,7.8139,Switzerland,CH,Bern,,1480.0,1480.0
Messen,47.0914,7.4486,Switzerland,CH,Solothurn,,1480.0,1480.0
L’Abbaye,46.65,6.3167,Switzerland,CH,Vaud,,1476.0,1476.0
Les Montets,46.8164,6.8669,Switzerland,CH,Fribourg,,1474.0,1474.0
Löhningen,47.7019,8.5517,Switzerland,CH,Schaffhausen,,1472.0,1472.0
Treyvaux,46.7333,7.1333,Switzerland,CH,Fribourg,,1470.0,1470.0
Ramsen,47.6997,8.7997,Switzerland,CH,Schaffhausen,,1469.0,1469.0
Apples,46.55,6.4333,Switzerland,CH,Vaud,,1468.0,1468.0
Mumpf,47.5472,7.9194,Switzerland,CH,Aargau,,1467.0,1467.0
Veltheim,47.44,8.1483,Switzerland,CH,Aargau,,1465.0,1465.0
Wahlen,47.4028,7.5164,Switzerland,CH,Basel-Landschaft,,1462.0,1462.0
Schneisingen,47.5192,8.3667,Switzerland,CH,Aargau,,1462.0,1462.0
Rüttenen,47.2303,7.5297,Switzerland,CH,Solothurn,,1462.0,1462.0
Tübach,47.4833,9.45,Switzerland,CH,Sankt Gallen,,1461.0,1461.0
Meierskappel,47.1256,8.4442,Switzerland,CH,Luzern,,1460.0,1460.0
Mauensee,47.1672,8.0658,Switzerland,CH,Luzern,,1458.0,1458.0
Origlio,46.05,8.95,Switzerland,CH,Ticino,,1457.0,1457.0
Salmsach,47.5497,9.3664,Switzerland,CH,Thurgau,,1457.0,1457.0
Dotzigen,47.1206,7.3403,Switzerland,CH,Bern,,1457.0,1457.0
Egliswil,47.3499,8.1863,Switzerland,CH,Aargau,,1456.0,1456.0
Gonten,47.3283,9.3467,Switzerland,CH,Appenzell Innerrhoden,,1455.0,1455.0
Holziken,47.3219,8.0389,Switzerland,CH,Aargau,,1454.0,1454.0
Riniken,47.4956,8.1875,Switzerland,CH,Aargau,,1452.0,1452.0
Lyssach,47.0644,7.5794,Switzerland,CH,Bern,,1446.0,1446.0
Melano,45.9167,8.9833,Switzerland,CH,Ticino,,1439.0,1439.0
Witterswil,47.4872,7.5236,Switzerland,CH,Solothurn,,1438.0,1438.0
Flurlingen,47.6839,8.6283,Switzerland,CH,Zürich,,1437.0,1437.0
Thundorf,47.5472,8.9644,Switzerland,CH,Thurgau,,1437.0,1437.0
Courtelary,47.1792,7.0722,Switzerland,CH,Bern,minor,1437.0,1437.0
Lupsingen,47.4456,7.6939,Switzerland,CH,Basel-Landschaft,,1436.0,1436.0
Yens,46.527,6.4067,Switzerland,CH,Vaud,,1430.0,1430.0
Emmetten,46.9567,8.5181,Switzerland,CH,Nidwalden,,1429.0,1429.0
Trin,46.8624,9.3299,Switzerland,CH,Graubünden,,1429.0,1429.0
Boniswil,47.3178,8.1858,Switzerland,CH,Aargau,,1427.0,1427.0
Court,47.2403,7.3375,Switzerland,CH,Bern,,1427.0,1427.0
Seegräben,47.3433,8.7719,Switzerland,CH,Zürich,,1426.0,1426.0
Wil,47.6058,8.5075,Switzerland,CH,Zürich,,1425.0,1425.0
Stein,47.3733,9.3444,Switzerland,CH,Appenzell Ausserrhoden,,1423.0,1423.0
Courgevaux,46.9065,7.1121,Switzerland,CH,Fribourg,,1420.0,1420.0
Kappelen,47.0608,7.2681,Switzerland,CH,Bern,,1419.0,1419.0
Avusy,46.15,5.9833,Switzerland,CH,Genève,,1416.0,1416.0
Unterlunkhofen,47.3219,8.3819,Switzerland,CH,Aargau,,1415.0,1415.0
Semsales,46.5667,6.9333,Switzerland,CH,Fribourg,,1412.0,1412.0
Münstschemier,46.9833,7.1333,Switzerland,CH,Bern,,1404.0,1404.0
Heitenried,46.8276,7.3045,Switzerland,CH,Fribourg,,1403.0,1403.0
Mühlethurnen,46.8136,7.5075,Switzerland,CH,Bern,,1402.0,1402.0
Trélex,46.4167,6.2,Switzerland,CH,Vaud,,1402.0,1402.0
Schöfflisdorf,47.5008,8.4169,Switzerland,CH,Zürich,,1398.0,1398.0
Eriswil,47.0831,7.85,Switzerland,CH,Bern,,1396.0,1396.0
Salvan,46.1167,7.0167,Switzerland,CH,Valais,,1393.0,1393.0
Hérémence,46.1833,7.4,Switzerland,CH,Valais,,1392.0,1392.0
Andermatt,46.6205,8.6314,Switzerland,CH,Uri,,1390.0,1390.0
Gisikon,47.1239,8.3981,Switzerland,CH,Luzern,,1387.0,1387.0
Gravesano,46.05,8.9167,Switzerland,CH,Ticino,,1386.0,1386.0
Cureglia,46.0333,8.95,Switzerland,CH,Ticino,,1385.0,1385.0
Schönenbuch,47.5369,7.5008,Switzerland,CH,Basel-Landschaft,,1385.0,1385.0
Erlach,47.0426,7.0974,Switzerland,CH,Bern,,1384.0,1384.0
Vitznau,47.0101,8.4842,Switzerland,CH,Luzern,,1379.0,1379.0
Grono,46.2482,9.1477,Switzerland,CH,Graubünden,,1376.0,1376.0
Flaach,47.5764,8.6092,Switzerland,CH,Zürich,,1375.0,1375.0
Leukerbad,46.3833,7.6333,Switzerland,CH,Valais,,1368.0,1368.0
Boppelsen,47.4714,8.4033,Switzerland,CH,Zürich,,1365.0,1365.0
Häggenschwil,47.4831,9.35,Switzerland,CH,Sankt Gallen,,1364.0,1364.0
Gryon,46.2906,7.0975,Switzerland,CH,Vaud,,1364.0,1364.0
Thürnen,47.4572,7.8303,Switzerland,CH,Basel-Landschaft,,1363.0,1363.0
Develier,47.35,7.2833,Switzerland,CH,Jura,,1354.0,1354.0
Stetten,47.7331,8.65,Switzerland,CH,Schaffhausen,,1351.0,1351.0
Trub,46.9331,7.8831,Switzerland,CH,Bern,,1350.0,1350.0
Miège,46.3144,7.5484,Switzerland,CH,Valais,,1348.0,1348.0
Schinznach Bad,47.4497,8.1694,Switzerland,CH,Aargau,,1347.0,1347.0
Mesocco,46.3915,9.2374,Switzerland,CH,Graubünden,,1347.0,1347.0
Sankt Ursen,46.7869,7.2243,Switzerland,CH,Fribourg,,1345.0,1345.0
Visperterminen,46.25,7.9,Switzerland,CH,Valais,,1345.0,1345.0
Le Pâquier,46.5943,7.0552,Switzerland,CH,Fribourg,,1344.0,1344.0
Bassins,46.4667,6.2333,Switzerland,CH,Vaud,,1344.0,1344.0
Seewis im Prätigau,46.9903,9.6375,Switzerland,CH,Graubünden,,1342.0,1342.0
Pura,45.9832,8.8655,Switzerland,CH,Ticino,,1341.0,1341.0
Aesch,47.3369,8.4381,Switzerland,CH,Zürich,,1341.0,1341.0
Sankt Stephan,46.5,7.3831,Switzerland,CH,Bern,,1339.0,1339.0
Dietwil,47.1488,8.392,Switzerland,CH,Aargau,,1336.0,1336.0
Champéry,46.1751,6.8714,Switzerland,CH,Valais,,1336.0,1336.0
Uerkheim,47.3053,8.025,Switzerland,CH,Aargau,,1334.0,1334.0
Matzendorf,47.3069,7.6306,Switzerland,CH,Solothurn,,1332.0,1332.0
Baltschieder,46.3759,7.8806,Switzerland,CH,Valais,,1328.0,1328.0
Leibstadt,47.5903,8.1764,Switzerland,CH,Aargau,,1325.0,1325.0
Manno,46.0333,8.9167,Switzerland,CH,Ticino,,1324.0,1324.0
Salenstein,47.6736,9.0497,Switzerland,CH,Thurgau,,1323.0,1323.0
Gilly,46.45,6.3,Switzerland,CH,Vaud,,1322.0,1322.0
Holderbank,47.4331,8.1681,Switzerland,CH,Aargau,,1320.0,1320.0
Birwinken,47.5833,9.2,Switzerland,CH,Thurgau,,1319.0,1319.0
Täsch,46.0667,7.7667,Switzerland,CH,Valais,,1318.0,1318.0
Le Vaud,46.4775,6.2337,Switzerland,CH,Vaud,,1310.0,1310.0
Rodersdorf,47.4806,7.4569,Switzerland,CH,Solothurn,,1310.0,1310.0
Hochwald,47.4569,7.6403,Switzerland,CH,Solothurn,,1310.0,1310.0
Wittnau,47.4811,7.9778,Switzerland,CH,Aargau,,1309.0,1309.0
Villaz-Saint-Pierre,46.7167,6.95,Switzerland,CH,Fribourg,,1305.0,1305.0
Zetzwil,47.2886,8.1528,Switzerland,CH,Aargau,,1305.0,1305.0
Meinisberg,47.1594,7.3478,Switzerland,CH,Bern,,1303.0,1303.0
Lavertezzo,46.1755,8.8961,Switzerland,CH,Ticino,,1302.0,1302.0
Seltisberg,47.4594,7.7172,Switzerland,CH,Basel-Landschaft,,1301.0,1301.0
Kandersteg,46.4964,7.6744,Switzerland,CH,Bern,,1301.0,1301.0
Linden,46.85,7.6833,Switzerland,CH,Bern,,1299.0,1299.0
Vufflens-la-Ville,46.5833,6.5333,Switzerland,CH,Vaud,,1298.0,1298.0
Rheinau,47.6458,8.6067,Switzerland,CH,Zürich,,1298.0,1298.0
Bottens,46.6167,6.6667,Switzerland,CH,Vaud,,1297.0,1297.0
Kriegstetten,47.1747,7.5986,Switzerland,CH,Solothurn,,1294.0,1294.0
Läufelfingen,47.395,7.8559,Switzerland,CH,Basel-Landschaft,,1291.0,1291.0
Langrickenbach,47.5936,9.2475,Switzerland,CH,Thurgau,,1291.0,1291.0
Chavannes-de-Bogis,46.35,6.1667,Switzerland,CH,Vaud,,1285.0,1285.0
Venthône,46.3,7.5333,Switzerland,CH,Valais,,1283.0,1283.0
Radelfingen,46.9998,7.2683,Switzerland,CH,Bern,,1283.0,1283.0
Staffelbach,47.2831,8.0472,Switzerland,CH,Aargau,,1281.0,1281.0
Arbaz,46.2667,7.3833,Switzerland,CH,Valais,,1280.0,1280.0
Jussy,46.2371,6.2791,Switzerland,CH,Genève,,1279.0,1279.0
Luthern,47.0583,7.9158,Switzerland,CH,Luzern,,1275.0,1275.0
Hendschiken,47.3872,8.2194,Switzerland,CH,Aargau,,1269.0,1269.0
Evionnaz,46.1792,7.0225,Switzerland,CH,Valais,,1265.0,1265.0
Boltigen,46.6291,7.3911,Switzerland,CH,Bern,,1262.0,1262.0
Oberhelfenschwil,47.3497,9.1,Switzerland,CH,Sankt Gallen,,1261.0,1261.0
Kleinlützel,47.4278,7.4167,Switzerland,CH,Solothurn,,1261.0,1261.0
Ferenbalm,46.9487,7.2115,Switzerland,CH,Bern,,1260.0,1260.0
Leuzigen,47.1761,7.4597,Switzerland,CH,Bern,,1259.0,1259.0
Dürrenäsch,47.3219,8.1569,Switzerland,CH,Aargau,,1255.0,1255.0
Grächen,46.1967,7.8488,Switzerland,CH,Valais,,1251.0,1251.0
Les Ponts-de-Martel,46.9968,6.7266,Switzerland,CH,Neuchâtel,,1248.0,1248.0
Bettwiesen,47.5,9.0333,Switzerland,CH,Thurgau,,1247.0,1247.0
Blumenstein,46.7331,7.5164,Switzerland,CH,Bern,,1246.0,1246.0
Reitnau,47.2525,8.0444,Switzerland,CH,Aargau,,1243.0,1243.0
Les Bois,47.1833,6.9,Switzerland,CH,Jura,,1241.0,1241.0
Frauenkappelen,46.9554,7.3334,Switzerland,CH,Bern,,1240.0,1240.0
Rochefort,46.9833,6.8167,Switzerland,CH,Neuchâtel,,1239.0,1239.0
Bercher,46.6916,6.7062,Switzerland,CH,Vaud,,1238.0,1238.0
Sonvilier,47.1394,6.9653,Switzerland,CH,Bern,,1237.0,1237.0
Buttwil,47.2677,8.3111,Switzerland,CH,Aargau,,1228.0,1228.0
Boncourt,47.5,7.0167,Switzerland,CH,Jura,,1225.0,1225.0
Orvin,47.1606,7.2139,Switzerland,CH,Bern,,1222.0,1222.0
Chéserex,46.4167,6.1667,Switzerland,CH,Vaud,,1221.0,1221.0
Gingins,46.4167,6.1833,Switzerland,CH,Vaud,,1221.0,1221.0
Tamins,46.8294,9.4066,Switzerland,CH,Graubünden,,1217.0,1217.0
Gerzensee,46.8333,7.55,Switzerland,CH,Bern,,1215.0,1215.0
Lommis,47.5164,8.9831,Switzerland,CH,Thurgau,,1215.0,1215.0
Bettingen,47.5708,7.665,Switzerland,CH,Basel-Stadt,,1213.0,1213.0
Eclépens,46.65,6.5333,Switzerland,CH,Vaud,,1212.0,1212.0
Villars-le-Terroir,46.65,6.6333,Switzerland,CH,Vaud,,1212.0,1212.0
Marbach,46.8542,7.9,Switzerland,CH,Luzern,,1212.0,1212.0
Aesch,47.2547,8.2414,Switzerland,CH,Luzern,,1205.0,1205.0
Stettfurt,47.5261,8.9556,Switzerland,CH,Thurgau,,1204.0,1204.0
Muolen,47.5167,9.3164,Switzerland,CH,Sankt Gallen,,1200.0,1200.0
Oberstammheim,47.6339,8.7994,Switzerland,CH,Zürich,,1196.0,1196.0
Beatenberg,46.6997,7.8,Switzerland,CH,Bern,,1196.0,1196.0
La Sonnaz,46.8339,7.1086,Switzerland,CH,Fribourg,,1190.0,1190.0
Tegerfelden,47.5619,8.2848,Switzerland,CH,Aargau,,1190.0,1190.0
La Verrerie,46.6167,6.9167,Switzerland,CH,Fribourg,,1188.0,1188.0
Bättwil,47.5,7.5167,Switzerland,CH,Solothurn,,1186.0,1186.0
Zuoz,46.602,9.9598,Switzerland,CH,Graubünden,,1186.0,1186.0
Aire-la-Ville,46.1902,6.0423,Switzerland,CH,Genève,,1184.0,1184.0
Ried bei Kerzers,46.9633,7.181,Switzerland,CH,Fribourg,,1183.0,1183.0
Choulex,46.2263,6.2238,Switzerland,CH,Genève,,1179.0,1179.0
Crassier,46.3667,6.1667,Switzerland,CH,Vaud,,1177.0,1177.0
Obergerlafingen,47.1611,7.5833,Switzerland,CH,Solothurn,,1176.0,1176.0
Niederbuchsiten,47.2969,7.7708,Switzerland,CH,Solothurn,,1175.0,1175.0
Mühlau,47.2303,8.3917,Switzerland,CH,Aargau,,1175.0,1175.0
Günsberg,47.2567,7.5761,Switzerland,CH,Solothurn,,1174.0,1174.0
Zeihen,47.4775,8.0847,Switzerland,CH,Aargau,,1171.0,1171.0
Twann,47.0831,7.15,Switzerland,CH,Bern,,1171.0,1171.0
Gettnau,47.1403,7.9694,Switzerland,CH,Luzern,,1170.0,1170.0
Trun,46.7433,8.9831,Switzerland,CH,Graubünden,,1170.0,1170.0
Schmiedrued,47.2639,8.1125,Switzerland,CH,Aargau,,1168.0,1168.0
Birrwil,47.2902,8.1962,Switzerland,CH,Aargau,,1166.0,1166.0
La Rippe,46.3833,6.15,Switzerland,CH,Vaud,,1166.0,1166.0
La Roche,47.4167,7.1667,Switzerland,CH,Jura,,1162.0,1162.0
Morschach,46.9817,8.6197,Switzerland,CH,Schwyz,,1159.0,1159.0
Cevio,46.3783,8.5423,Switzerland,CH,Ticino,,1159.0,1159.0
Sumvitg,46.7164,8.9331,Switzerland,CH,Graubünden,,1158.0,1158.0
Jenaz,46.9164,9.7164,Switzerland,CH,Graubünden,,1146.0,1146.0
Heimenhausen,47.2097,7.7,Switzerland,CH,Bern,,1142.0,1142.0
Lully,46.8333,6.8447,Switzerland,CH,Fribourg,,1141.0,1141.0
Remaufens,46.5167,6.8667,Switzerland,CH,Fribourg,,1139.0,1139.0
Wyssachen,47.074,7.8214,Switzerland,CH,Bern,,1137.0,1137.0
Schnottwil,47.1088,7.3912,Switzerland,CH,Solothurn,,1135.0,1135.0
Remigen,47.5164,8.1875,Switzerland,CH,Aargau,,1135.0,1135.0
Borex,46.3787,6.1781,Switzerland,CH,Vaud,,1133.0,1133.0
Krattigen,46.6502,7.7402,Switzerland,CH,Bern,,1132.0,1132.0
Liesberg,47.405,7.43,Switzerland,CH,Basel-Landschaft,,1127.0,1127.0
Schlatterlehn,47.3567,9.3961,Switzerland,CH,Appenzell Ausserrhoden,,1126.0,1126.0
Waldenburg,47.3831,7.75,Switzerland,CH,Basel-Landschaft,,1125.0,1125.0
Kappel am Albis,47.2286,8.5272,Switzerland,CH,Zürich,,1124.0,1124.0
Leissigen,46.6497,7.7664,Switzerland,CH,Bern,,1123.0,1123.0
Greppen,47.055,8.4294,Switzerland,CH,Luzern,,1118.0,1118.0
Noville,46.3833,6.9,Switzerland,CH,Vaud,,1118.0,1118.0
Etagnières,46.6,6.6167,Switzerland,CH,Vaud,,1115.0,1115.0
Pampigny,46.5802,6.4266,Switzerland,CH,Vaud,,1114.0,1114.0
Welschenrohr,47.2814,7.5289,Switzerland,CH,Solothurn,,1114.0,1114.0
Brusio,46.2555,10.119,Switzerland,CH,Graubünden,,1114.0,1114.0
Wuppenau,47.4972,9.1089,Switzerland,CH,Thurgau,,1111.0,1111.0
Silvaplauna,46.4667,9.7997,Switzerland,CH,Graubünden,,1111.0,1111.0
Bünzen,47.3108,8.3261,Switzerland,CH,Aargau,,1110.0,1110.0
Mülligen,47.4581,8.2403,Switzerland,CH,Aargau,,1109.0,1109.0
Hagenbuch,47.5225,8.8883,Switzerland,CH,Zürich,,1105.0,1105.0
Rechthalten,46.7634,7.246,Switzerland,CH,Fribourg,,1103.0,1103.0
Lauerz,47.0347,8.5803,Switzerland,CH,Schwyz,,1100.0,1100.0
Sorens,46.6667,7.0667,Switzerland,CH,Fribourg,,1098.0,1098.0
Affoltern im Emmental,47.0497,7.7167,Switzerland,CH,Bern,,1097.0,1097.0
Rifferswil,47.2331,8.4667,Switzerland,CH,Zürich,,1096.0,1096.0
Burgistein,46.7921,7.5032,Switzerland,CH,Bern,,1096.0,1096.0
Ependes,46.75,7.15,Switzerland,CH,Fribourg,,1089.0,1089.0
Stalden,46.2333,7.8667,Switzerland,CH,Valais,,1086.0,1086.0
Duillier,46.4167,6.2333,Switzerland,CH,Vaud,,1080.0,1080.0
Morrens,46.5833,6.6333,Switzerland,CH,Vaud,,1079.0,1079.0
Herdern,47.5997,8.8997,Switzerland,CH,Thurgau,,1079.0,1079.0
Assens,46.6178,6.6274,Switzerland,CH,Vaud,,1077.0,1077.0
Obermumpf,47.5317,7.9375,Switzerland,CH,Aargau,,1074.0,1074.0
Untereggen,47.4664,9.4497,Switzerland,CH,Sankt Gallen,,1073.0,1073.0
Oberembrach,47.4875,8.6183,Switzerland,CH,Zürich,,1073.0,1073.0
Gletterens,46.895,6.9375,Switzerland,CH,Fribourg,,1070.0,1070.0
Wegenstetten,47.5,7.9333,Switzerland,CH,Aargau,,1066.0,1066.0
Buus,47.5053,7.8644,Switzerland,CH,Basel-Landschaft,,1066.0,1066.0
Yvorne,46.3333,6.95,Switzerland,CH,Vaud,,1066.0,1066.0
Ballaigues,46.7333,6.4167,Switzerland,CH,Vaud,,1064.0,1064.0
Vaulruz,46.6167,6.9833,Switzerland,CH,Fribourg,,1063.0,1063.0
Innertkirchen,46.6997,8.2333,Switzerland,CH,Bern,,1063.0,1063.0
Hermance,46.2936,6.2447,Switzerland,CH,Genève,,1062.0,1062.0
Bäriswil,47.0167,7.5333,Switzerland,CH,Bern,,1062.0,1062.0
Dürrenroth,47.0892,7.791,Switzerland,CH,Bern,,1061.0,1061.0
Fétigny,46.7961,6.9144,Switzerland,CH,Fribourg,,1060.0,1060.0
Wäldi,47.6333,9.0831,Switzerland,CH,Thurgau,,1059.0,1059.0
Stüsslingen,47.3942,7.9708,Switzerland,CH,Solothurn,,1055.0,1055.0
Giebenach,47.5231,7.7447,Switzerland,CH,Basel-Landschaft,,1055.0,1055.0
Trüllikon,47.6392,8.6931,Switzerland,CH,Zürich,,1054.0,1054.0
Eggenwil,47.3706,8.3403,Switzerland,CH,Aargau,,1053.0,1053.0
Freienwil,47.503,8.3265,Switzerland,CH,Aargau,,1053.0,1053.0
Wölflinswil,47.4611,7.9979,Switzerland,CH,Aargau,,1048.0,1048.0
Plasselb,46.7333,7.25,Switzerland,CH,Fribourg,,1048.0,1048.0
Mézières,46.6785,6.9258,Switzerland,CH,Fribourg,,1045.0,1045.0
Les Brenets,47.0667,6.7,Switzerland,CH,Neuchâtel,,1044.0,1044.0
Schongau,47.2672,8.2581,Switzerland,CH,Luzern,,1044.0,1044.0
Büren,47.4511,7.6708,Switzerland,CH,Solothurn,,1042.0,1042.0
Sembrancher,46.078,7.1512,Switzerland,CH,Valais,,1042.0,1042.0
Sullens,46.6,6.5667,Switzerland,CH,Vaud,,1036.0,1036.0
Vich,46.4333,6.25,Switzerland,CH,Vaud,,1035.0,1035.0
Champagne,46.8358,6.6516,Switzerland,CH,Vaud,,1035.0,1035.0
Gansingen,47.5442,8.1347,Switzerland,CH,Aargau,,1034.0,1034.0
Haldenstein,46.8786,9.5269,Switzerland,CH,Graubünden,,1033.0,1033.0
Saint George,46.5167,6.2667,Switzerland,CH,Vaud,,1032.0,1032.0
Dörflingen,47.7075,8.7202,Switzerland,CH,Schaffhausen,,1028.0,1028.0
Daillens,46.6167,6.55,Switzerland,CH,Vaud,,1027.0,1027.0
Baulmes,46.7833,6.5167,Switzerland,CH,Vaud,,1027.0,1027.0
Givrins,46.4333,6.2,Switzerland,CH,Vaud,,1026.0,1026.0
Oeschgen,47.5219,8.0181,Switzerland,CH,Aargau,,1026.0,1026.0
Quinto,46.5167,8.7,Switzerland,CH,Ticino,,1026.0,1026.0
Augst,47.535,7.7128,Switzerland,CH,Aargau,,1024.0,1024.0
Burg,47.2372,8.1819,Switzerland,CH,Aargau,,1023.0,1023.0
Essertines-sur-Yverdon,46.7167,6.6333,Switzerland,CH,Vaud,,1023.0,1023.0
Hüntwangen,47.5961,8.4939,Switzerland,CH,Zürich,,1020.0,1020.0
La Sagne,47.0388,6.7988,Switzerland,CH,Neuchâtel,,1016.0,1016.0
Vorderthal,47.1203,8.9008,Switzerland,CH,Schwyz,,1015.0,1015.0
Rickenbach,47.3414,7.8583,Switzerland,CH,Solothurn,,1012.0,1012.0
Dägerlen,47.5619,8.7231,Switzerland,CH,Zürich,,1012.0,1012.0
Cornol,47.4,7.1667,Switzerland,CH,Jura,,1010.0,1010.0
Seewen,47.4358,7.6597,Switzerland,CH,Solothurn,,1010.0,1010.0
Grub,47.4481,9.5094,Switzerland,CH,Appenzell Ausserrhoden,,1008.0,1008.0
Vals,46.6164,9.1833,Switzerland,CH,Graubünden,,1007.0,1007.0
Saint Martin,46.5833,6.8667,Switzerland,CH,Fribourg,,1005.0,1005.0
Vuarrens,46.6833,6.65,Switzerland,CH,Vaud,,1004.0,1004.0
Cressier,46.9,7.1333,Switzerland,CH,Fribourg,,1001.0,1001.0
L’Isle,46.6167,6.4167,Switzerland,CH,Vaud,,1001.0,1001.0
Mörel-Filet,46.357,8.048,Switzerland,CH,Valais,minor,680.0,680.0
Igis,46.9497,9.5667,Switzerland,CH,Graubünden,minor,,
Tafers,46.8163,7.221,Switzerland,CH,Fribourg,minor,,
Cernier,47.0606,6.9021,Switzerland,CH,Neuchâtel,minor,,
Haslen,47.3693,9.3675,Switzerland,CH,Appenzell Innerrhoden,minor,,
Münster-Geschinen,46.4833,8.25,Switzerland,CH,Valais,minor,,
Tiefencastel,46.645,9.6131,Switzerland,CH,Graubünden,minor,,
